addressLocality,addressRegion,latitude,longitude,postalCode,streetAddress,Store
Abbeville,AL,31.56763268,-85.2512107,36310-2417,214 Kirkland Street,Family Dollar
Albertville,AL,34.265782,-86.206143,35950-2329,315 Sand Mountain Dr Se,Family Dollar
Aliceville,AL,33.127951,-88.151062,35442-2155,35 Memorial Parkway East,Family Dollar
Anniston,AL,33.66706,-85.828,36201-3851,1722 Quintard Ave,Family Dollar
Athens,AL,34.798594,-86.971662,35611-3541,"515 S Jefferson Sreet, Suite B",Family Dollar
Atmore,AL,31.02144,-87.488465,36502-2626,500 E Church St,Family Dollar
Auburn,AL,32.61053281,-85.48999808,36832,316 N. Donahue Drive,Family Dollar
Bessemer,AL,33.43400228,-86.93786563,35020-2414,4341 Bessemer Super Highway,Family Dollar
Bessemer,AL,33.38772569,-86.96756229,35020-6229,430 4th Avenue N,Family Dollar
Bessemer,AL,33.39242,-86.95041,35020,330 14th Street S,Family Dollar
Bessemer,AL,33.40547,-86.95767,35020-4872,631 19th St N,Family Dollar
Birmingham,AL,33.55000047,-86.7394171,35206-5012,6629 1st Avenue N,Family Dollar
Birmingham,AL,33.56568212,-86.7839249,35217-3718,4300 Vanderbilt Road,Family Dollar
Birmingham,AL,33.587917,-86.69226,35235,332 Gadsden Hwy,Family Dollar
Birmingham,AL,33.480199,-86.844924,35211,925 Dennison Avenue Sw,Family Dollar
Birmingham,AL,33.496491,-86.87877,35208-4712,2224 Bessemer Rd,Family Dollar
Birmingham,AL,33.479819,-86.862074,35211-3360,1747 Jefferson Ave Sw,Family Dollar
Birmingham,AL,33.46328385,-86.90872681,35228-2233,30 Phillips Dr,Family Dollar
Birmingham,AL,33.642786,-86.70608,35215,2157 Carson Rd,Family Dollar
Birmingham,AL,33.5150991,-86.80747228,35203-3606,1910 2nd Ave N,Family Dollar
Birmingham,AL,33.55331,-86.819212,35207-4504,3120 26th Street N,Family Dollar
Birmingham,AL,33.48107,-86.893666,35208-4325,1355 Bessemer Rd,Family Dollar
Birmingham,AL,33.533272,-86.799885,35234-3219,3001 12th Ave N,Family Dollar
Birmingham,AL,33.511014,-86.895976,35218-2212,2003 Avenue F Ensley,Family Dollar
Birmingham,AL,33.539011,-86.752955,35212-2403,5401 1st Ave. N.,Family Dollar
Birmingham,AL,33.608904,-86.687794,35215-7402,608 Springville Rd,Family Dollar
Birmingham,AL,33.558151,-86.732806,35206-4213,7330 1st Ave N,Family Dollar
Birmingham,AL,33.541169,-86.870798,35214,1556 Bankhead Hwy W.,Family Dollar
Birmingham,AL,33.51178845,-86.83567854,35204,521 Center Street N,Family Dollar
Birmingham,AL,33.4927,-86.853621,35211-1943,1305 Tuscaloosa Avenue Sw,Family Dollar
Birmingham,AL,33.47011735,-86.88436198,35221-1100,3124 Alemeda Avenue Sw,Family Dollar
Birmingham,AL,33.49518452,-86.82659025,35205,200 6th Avenue S,Family Dollar
Boaz,AL,34.198315,-86.161174,35957-1949,10364 Al Hwy 168,Family Dollar
Brewton,AL,31.122283,-87.070025,36426-1586,"1023 Douglas Avenue, Suite 214",Family Dollar
Butler,AL,32.089014,-88.224438,36904-2430,302 West Pushmataha Street,Family Dollar
Calera,AL,33.104628,-86.753774,35040-1101,8154 Hwy 31,Family Dollar
Camden,AL,31.996664,-87.27981,36726,13 Camden Bypass,Family Dollar
Center Point,AL,33.63976198,-86.6843502,35215,2020 Center Point Parkway,Family Dollar
Chickasaw,AL,30.757821,-88.07601,36611-2213,424 S Craft Highway,Family Dollar
Childersburg,AL,33.278249,-86.356389,35044-1637,913 1st Street Sw,Family Dollar
Citronelle,AL,31.098971,-88.238944,36522-2029,19535 N 3rd St,Family Dollar
Clio,AL,31.70856389,-85.61200536,36017,1181 Brundidge Street,Family Dollar
Dadeville,AL,32.834139,-85.763018,36853-1307,368 N Broadnax St,Family Dollar
Decatur,AL,34.52478,-86.89315,35603-6300,472 Highway 67 S,Family Dollar
Decatur,AL,34.57753,-86.9738,35601-6027,1838 6th Ave Se #B,Family Dollar
Decatur,AL,34.603733,-86.999726,35601-2041,905 Moulton St W,Family Dollar
Demopolis,AL,32.511489,-87.83428,36732-2254,306 E Jackson St,Family Dollar
Dothan,AL,31.22132114,-85.37283292,36301,104 Palm Jean Road,Family Dollar
Dothan,AL,31.210297,-85.392233,36301-3543,1061 S Oates Street,Family Dollar
Dothan,AL,31.238622,-85.40774,36303-3309,1707 Montgomery Hwy,Family Dollar
Eufaula,AL,31.881931,-85.146917,36027-2608,980 S Eufaula Ave,Family Dollar
Eutaw,AL,32.839288,-87.885459,35462-5400,132 Greensboro Street,Family Dollar
Fairfield,AL,33.49883,-86.910622,35064-1401,313 36th Street,Family Dollar
Florala,AL,31.004972,-86.328696,36442-3219,1152 5th Street,Family Dollar
Florence,AL,34.86425442,-87.69100728,35633-1113,3928 Cloverdale Rd,Family Dollar
Foley,AL,30.397203,-87.68296,36535,761 S Mckenzie Street,Family Dollar
Forestdale,AL,33.56926894,-86.89969419,35214,1644 Forestdale Blvd.,Family Dollar
Gadsden,AL,34.023625,-86.020164,35901-3058,301 N 12th Street,Family Dollar
Grand Bay,AL,30.47994,-88.33581,36541,12350 Us Highway 90,Family Dollar
Greensboro,AL,32.70508549,-87.59498662,36744-1575,1095 Tuscaloosa Street,Family Dollar
Greenville,AL,31.830577,-86.621827,36037-2205,217 Cedar Street,Family Dollar
Grove Hill,AL,31.703027,-87.776705,36451-3006,184 S Jackson St.,Family Dollar
Gulf Shores,AL,30.271133,-87.686005,36542,1720 Gulf Shores Pky,Family Dollar
Hartselle,AL,34.443022,-86.938772,35640-2431,501 W Main Street,Family Dollar
Hayneville,AL,32.185037,-86.576568,36040,149 Hayneville Plaza,Family Dollar
Hoover,AL,33.39724,-86.802184,35216-5422,3202 Lorna Road,Family Dollar
Huntsville,AL,34.735782,-86.6086,35816-3317,2715 University Drive Nw,Family Dollar
Huntsville,AL,34.738038,-86.576019,35801-3635,809 Wellman Ave Ne,Family Dollar
Huntsville,AL,34.721,-86.616321,35805-3542,3610 Governors Drive Sw,Family Dollar
Huntsville,AL,34.824597,-86.474006,35811-9230,2700 Winchester Rd Ne,Family Dollar
Huntsville,AL,34.76231035,-86.5785586,35810,405 Mastin Lake Road Nw,Family Dollar
Huntsville,AL,34.77039,-86.617322,35810-3254,3407 Pulaski Pike Nw,Family Dollar
Huntsville,AL,34.79339,-86.59892,35810-1598,2512 Winchester Pike Nw,Family Dollar
Huntsville,AL,34.704229,-86.608706,35805-4643,3321 Triana Blvd Sw,Family Dollar
Irvington,AL,30.494985,-88.232973,36544,9415 Bayou La Batre-Irvington,Family Dollar
Jackson,AL,31.523856,-87.896465,36545-2404,1127 College Ave,Family Dollar
Jemison,AL,32.95786901,-86.74283508,35085,24586 Us Highway 31,Family Dollar
Ladonia,AL,32.470947,-85.094173,36869,3926 Us Hwy 80 W,Family Dollar
Lafayette,AL,32.881528,-85.405171,36862-2518,904 S Lafayette St,Family Dollar
Lanett,AL,32.8703,-85.187277,36863-2053,403 North Gilmer Avenue,Family Dollar
Linden,AL,32.300371,-87.797457,36748-2027,617 S Main St,Family Dollar
Livingston,AL,32.608282,-88.183866,35470,1307 North Washington Street,Family Dollar
Loxley,AL,30.621649,-87.753515,36551,1049 S Hickory Street,Family Dollar
Luverne,AL,31.704309,-86.264697,36049-7016,822 S Forest Av,Family Dollar
Magnolia Springs,AL,30.407204,-87.773566,36555,14627 Us Hwy 98,Family Dollar
Marion,AL,32.619909,-87.317032,36756-3202,110 Fikes Ferry Road,Family Dollar
Mcintosh,AL,31.26495,-88.030734,36553,Highway 43 North,Family Dollar
Midfield,AL,33.450044,-86.926614,35228-3003,639 Bessemer Super Hwy,Family Dollar
Millbrook,AL,32.512911,-86.380497,36054,3435 Highway 14,Family Dollar
Mobile,AL,30.695296,-88.054879,36603-5927,408 N Broad Street,Family Dollar
Mobile,AL,30.719586,-88.082765,36617-3622,2312 Saint Stephens Rd,Family Dollar
Mobile,AL,30.660988,-88.10764,36606-2162,2755 Pleasant Valley Rd,Family Dollar
Mobile,AL,30.673864,-88.055665,36603-1114,670 S Broad St,Family Dollar
Mobile,AL,30.72861,-88.173824,36618-2633,5753 Moffett Rd,Family Dollar
Mobile,AL,30.646752,-88.102845,36605-2421,1354 Navco Rd,Family Dollar
Mobile,AL,30.610396,-88.075685,36605-3835,3002 Dauphin Island Pky,Family Dollar
Mobile,AL,30.58777697,-88.16765272,36619-1976,5441 Hwy 90 W,Family Dollar
Mobile,AL,30.700856,-88.111437,36607-1814,2998 Springhill Ave,Family Dollar
Mobile,AL,30.647485,-88.088524,36605,1281-A Dauphin Island Pkwy.,Family Dollar
Mobile,AL,30.665688,-88.08658,36606-1265,717 Dauphin Island Pkwy,Family Dollar
Mobile,AL,30.67281,-88.171854,36609-2909,316 S. University Blvd,Family Dollar
Mobile,AL,30.721261,-88.150198,36618,4726 Moffett Rd,Family Dollar
Mobile,AL,30.711274,-88.097925,36617,653 Stanton Rd,Family Dollar
Mobile,AL,30.709285,-88.194627,36608,6510 Zeigler Blvd,Family Dollar
Montgomery,AL,32.34344455,-86.34055615,36108,3212 Mobile Highway,Family Dollar
Montgomery,AL,32.374773,-86.29593,36104-4405,225 S Jackson Street,Family Dollar
Montgomery,AL,32.331081,-86.299872,36105-2904,3760 Norman Bridge Rd,Family Dollar
Montgomery,AL,32.36978576,-86.34307703,36108-2122,3200 Day Street,Family Dollar
Montgomery,AL,32.31554267,-86.25931,36116-3830,3485 Woodley Road,Family Dollar
Montgomery,AL,32.30755494,-86.34912429,36108,4949 Mobile Hwy,Family Dollar
Montgomery,AL,32.366314,-86.24366,36109,1011 Perry Hill Road,Family Dollar
Montgomery,AL,32.337017,-86.259735,36111-2203,3030 Mcgehee Road,Family Dollar
Montgomery,AL,32.381217,-86.273765,36107-2003,2525 Madison Ave,Family Dollar
Montgomery,AL,32.352809,-86.324501,36108-4117,872 W Fairview Ave,Family Dollar
Montgomery,AL,32.327045,-86.32478,36105-3019,820 W South Boulevard,Family Dollar
Montgomery,AL,32.363042,-86.300714,36104-5118,1162 S Decatur St,Family Dollar
Montgomery,AL,32.31318495,-86.22367218,36116-4104,5771 Kyser Court,Family Dollar
Montgomery,AL,32.352174,-86.31065,36105-1804,210 W Fairview Ave,Family Dollar
Montgomery,AL,32.330143,-86.231268,36116-1701,3619 East Boulevard,Family Dollar
Montgomery,AL,32.4145,-86.28673,36110-1925,2807 Lower Wetumpka Rd,Family Dollar
Moundville,AL,32.997635,-87.622632,35474,40278 Hwy 69s,Family Dollar
Mount Vernon,AL,31.09059434,-88.01510414,36560-3446,19160 Highway 43,Family Dollar
Opelika,AL,32.643859,-85.390052,36801,1420 2nd Avenue,Family Dollar
Opp,AL,31.285824,-86.25582,36467-2009,303 N. Main Street,Family Dollar
Ozark,AL,31.46264,-85.63944,36360-1435,296 N Union Ave,Family Dollar
Phenix City,AL,32.47388,-85.017374,36867-4229,1710 Crawford Road,Family Dollar
Phenix City,AL,32.467632,-85.029678,36867-5447,1113 280 Bypass,Family Dollar
Phenix City,AL,32.43247,-85.02611,36869-7735,1009 Gateway Dr,Family Dollar
Phenix City,AL,32.495658,-85.017638,36867-3109,1849 Stadium Dr,Family Dollar
Piedmont,AL,33.93320673,-85.60484151,36272,381 Haslam Street,Family Dollar
Prattville,AL,32.439422,-86.473461,36067,104 Highway 82 Bypass,Family Dollar
Prichard,AL,30.746336,-88.077981,36610-1739,1214 N. Wilson Avenue,Family Dollar
Saraland,AL,30.825974,-88.074988,36571-2419,124 Saraland Loop,Family Dollar
Scottsboro,AL,34.673051,-86.02869,35768-1906,502 E Willow Street,Family Dollar
Selma,AL,32.43831,-87.02012,36701-3913,2810 Citizens Parkway,Family Dollar
Selma,AL,32.4158,-87.02517,36703-4509,1007 Broad St,Family Dollar
Semmes,AL,30.821749,-88.258746,36575-0288,6250 Mccrary Rd,Family Dollar
Slocomb,AL,31.107856,-85.599634,36375,534 Lawrence Hwy,Family Dollar
Stevenson,AL,34.86889882,-85.81656231,35772-3769,104 Adam St,Family Dollar
Sylacauga,AL,33.167993,-86.250096,35150-2522,20 N Broadway Ave,Family Dollar
Talladega,AL,33.434724,-86.09999,35160-2419,207 Battle Street E,Family Dollar
Tarrant,AL,33.58909713,-86.76637801,35217-2007,2100 Pinson Valley Parkway,Family Dollar
Theodore,AL,30.562132,-88.215721,36582-4029,7371 Theodore Dawes Rd,Family Dollar
Troy,AL,31.813903,-85.970485,36081-2705,705 N Tree Notch Street,Family Dollar
Tuscaloosa,AL,33.189211,-87.576921,35401,2515 Martin Luther King Jr Blv,Family Dollar
Tuscaloosa,AL,33.1730181,-87.54630534,35405-2846,3851 Greensboro Avenue,Family Dollar
Tuscaloosa,AL,33.199822,-87.589628,35401-2632,1507 Culver Rd,Family Dollar
Tuscaloosa,AL,33.200698,-87.54454,35401-3434,524 14th St,Family Dollar
Tuskegee,AL,32.422877,-85.69268,36083-2131,208 W. Martin Luther King High,Family Dollar
Union Springs,AL,32.14685076,-85.71183242,36089-1412,205 Conecuh Ave E,Family Dollar
Valley,AL,32.797868,-85.184089,36854,301a Us Highway 29,Family Dollar
Vernon,AL,33.753956,-88.113629,35592-1527,9598 Highway 18,Family Dollar
Wedowee,AL,33.31591523,-85.48374524,36278,17318 Highway 431,Family Dollar
Wilmer,AL,30.822808,-88.358226,36587-4419,13281 Moffett Road,Family Dollar
York,AL,32.48895616,-88.29680482,36925,700 4th Avenue,Family Dollar
Aguila,AZ,33.942398,-113.165272,85320,50518 N. Eagle View Drive,Family Dollar
Ajo,AZ,32.376544,-112.87342,85321-2003,601 N 2nd Ave,Family Dollar
Ash Fork,AZ,35.223086,-112.480815,86320,155 W. Park Ave.,Family Dollar
Avondale,AZ,33.42111603,-112.32222802,85353,12214 W. Lower Buckeye Road,Family Dollar
Avondale,AZ,33.439661,-112.340246,85323,725 North Dysart Rd,Family Dollar
Bisbee,AZ,31.400731,-109.917286,85603-9729,1101 S Naco Hwy Ste 105,Family Dollar
Black Canyon City,AZ,34.06875,-112.152801,85324,34150 S Old Black Canyon Hwy,Family Dollar
Bouse,AZ,33.9277,-114.003,85325,28035 State Route 72,Family Dollar
Buckeye,AZ,33.370052,-112.580806,85326-2907,709 Monroe Ave,Family Dollar
Bullhead City,AZ,35.146287,-114.569349,86429-5401,1127 Highway 95,Family Dollar
Bullhead City,AZ,35.108702,-114.61257,86442-5942,1005 Hancock Rd,Family Dollar
Bullhead City,AZ,35.099778,-114.623305,86442-5467,2054 Commercial Way,Family Dollar
Camp Verde,AZ,34.565244,-111.86513,86322,633 Finnie Flat Rd,Family Dollar
Casa Grande,AZ,32.888795,-111.758078,85222-3307,1437 N Pinal Ave,Family Dollar
Casa Grande,AZ,32.880796,-111.733352,85222-4264,1244 E Florence Blvd,Family Dollar
Chandler,AZ,33.322182,-111.840775,85225-6693,1027 N Arizona Ave,Family Dollar
Chino Valley,AZ,34.770044,-112.453712,86323,314 Business Park Dr,Family Dollar
Clifton,AZ,33.056193,-109.309377,85533,355 N Coronado Blvd,Family Dollar
Concho Lake,AZ,34.449852,-109.6307,85924,16 Cr 5064,Family Dollar
Congress,AZ,34.163167,-112.843622,85332,26645 South Highway 89,Family Dollar
Coolidge,AZ,32.982425,-111.523592,85128,555 N Arizona Blvd,Family Dollar
Cordes Lake,AZ,34.32609113,-112.11798037,86333,19660 Hitching Post Way,Family Dollar
Cornville,AZ,34.716966,-111.899499,86325,1255 S Eastern Dr.,Family Dollar
Cottonwood,AZ,34.72772,-112.005453,86326-4604,1685 E Cottonwood St,Family Dollar
Dewey,AZ,34.54685188,-112.2488584,86327,300 N Village Way,Family Dollar
Dolan Springs,AZ,35.588763,-114.27535,86441,15964 Pierce Ferry Rd.,Family Dollar
Douglas,AZ,31.344816,-109.531953,85607-2408,1900 E 10th St,Family Dollar
Duncan,AZ,32.728349,-109.093768,85534,379726 Arizona 75,Family Dollar
Ehrenberg,AZ,33.60865,-114.51784,85334,50045 Ehrenberg Poston Hwy,Family Dollar
Elfrida,AZ,31.6857,-109.687,85610,10391 N Highway 191,Family Dollar
El Mirage,AZ,33.60867355,-112.31968045,85335-3252,12101 W. Thunderbird Road,Family Dollar
Eloy,AZ,32.748981,-111.548655,85131,11 North Santa Cruz,Family Dollar
Flagstaff,AZ,35.215598,-111.599122,86004-4032,3494 E Route 66,Family Dollar
Flagstaff,AZ,35.227253,-111.578585,86004,5060 N. U.S. Highway 89,Family Dollar
Fredonia,AZ,36.9438,-112.527,86022,300 South Main Street,Family Dollar
Ft. Thomas,AZ,33.03880671,-109.96795059,85536,15822 W. Highway 70,Family Dollar
Gila Bend,AZ,32.945861,-112.722599,85337,415 West Pima Ave.,Family Dollar
Glendale,AZ,33.523128,-112.154119,85301,5846 N 43rd Avenue,Family Dollar
Glendale,AZ,33.51622271,-112.18561376,85301,5435 N 59th Avenue,Family Dollar
Glendale,AZ,33.537838,-112.15314,85301-2901,4341 W. Glendale Ave,Family Dollar
Glendale,AZ,33.53081649,-112.1867891,85301,6420 N 59th Avenue,Family Dollar
Glendale,AZ,33.539658,-112.204582,85303-2652,"6744 Glendale Ave., Ste. 155",Family Dollar
Globe,AZ,33.38803,-110.761819,85501-2029,1800 E Ash St,Family Dollar
Golden Valley,AZ,35.220998,-114.176139,86413-8555,4275 Us Highway 68,Family Dollar
Guadalupe,AZ,33.363184,-111.960707,85283,5801 E. Calle Guadalupe,Family Dollar
Heber-Overgaard,AZ,34.406925,-110.565986,85933,2857 Highway 260,Family Dollar
Holbrook,AZ,34.90169,-110.164229,86025-2845,407 West Hopi Dr,Family Dollar
Kearny,AZ,33.058364,-110.904533,85137,302 Alden Rd,Family Dollar
Kingman,AZ,35.25476167,-113.97573916,86409,4130 E John L. Avenue,Family Dollar
Kingman,AZ,35.253452,-114.01277,86409,2930 Northern Ave,Family Dollar
Lake Havasu City,AZ,34.477566,-114.324185,86403-5923,90 Acoma Blvd N,Family Dollar
Lake Montezuma,AZ,34.640854,-111.795737,86335,3125 East Beaver Creek Rd,Family Dollar
Lakeside,AZ,34.142426,-109.953765,85929,20 White Mountain Blvd  #7,Family Dollar
Marana,AZ,32.452648,-111.218105,85653,11825 W Grier Road,Family Dollar
Mayer,AZ,34.398797,-112.229767,86333,10062 South Hwy 69,Family Dollar
Meadview,AZ,35.9659,-114.094,86444,28955 Pierce Ferry Road,Family Dollar
Mesa,AZ,33.399119,-111.85873,85210-2001,840 S. Alma School Road,Family Dollar
Mesa,AZ,33.425807,-111.840373,85201,550 N. Country Club Drive,Family Dollar
Mesa,AZ,33.392868,-111.82539,85210-5345,255 E. Southern Avenue Suite 9,Family Dollar
Mesa,AZ,33.41467,-111.8088,85203-8851,1021 E. Main St.,Family Dollar
Mesa,AZ,33.398605,-111.873985,85202-2901,865 S Dobson Road,Family Dollar
Miami,AZ,33.415426,-110.826131,85539-7700,2250 Us Highway 60  Ste 01,Family Dollar
Mohave Valley,AZ,34.8975,-114.5972,86440,8920 S. Highway 95,Family Dollar
Nogales,AZ,31.338608,-110.937708,85621-2735,400 N Grand Ave,Family Dollar
Nogales,AZ,31.355974,-110.93042,85621-1346,1321 N Grand Ave,Family Dollar
Parker,AZ,34.148438,-114.291679,85344-5020,1016 S Kofa Ave,Family Dollar
Paulden,AZ,34.894935,-112.467325,86334,5 W Big Chino Road,Family Dollar
Peoria,AZ,33.581325,-112.270943,85345-6134,9796 W Peoria Ave,Family Dollar
Phoenix,AZ,33.4516,-112.115,85009-4408,2550 W Van Buren Street,Family Dollar
Phoenix,AZ,33.56454099,-112.0646118,85020-2910,8801 N 7th St.,Family Dollar
Phoenix,AZ,33.494356,-112.084639,85013-3173,725 W. Indian School Road,Family Dollar
Phoenix,AZ,33.479935,-112.13687,85019,3605 W Thomas Road,Family Dollar
Phoenix,AZ,33.40718,-112.033325,85040,2230 E Broadway Road,Family Dollar
Phoenix,AZ,33.52011275,-112.11747312,85017-2603,5628 N 27th Avenue,Family Dollar
Phoenix,AZ,33.495304,-112.20732,85033-3249,6868 W Indian School Road,Family Dollar
Phoenix,AZ,33.59624,-112.0989,85029-3524,12025 N. 19th Avenue,Family Dollar
Phoenix,AZ,33.450947,-112.01386,85008,3121 E. Van Buren Street,Family Dollar
Phoenix,AZ,33.479027,-112.16952,85031-3944,"5109 W Thomas Road, Suite 101",Family Dollar
Phoenix,AZ,33.630405,-112.03021,85032-3530,"15813 N Cave Creek Rd, Suite 1",Family Dollar
Phoenix,AZ,33.48731211,-112.09923917,85015-5702,3349 N 19th Avenue,Family Dollar
Phoenix,AZ,33.48136,-112.03714,85016,2046 E Thomas Rd,Family Dollar
Phoenix,AZ,33.5088,-112.118,85017,2709 W Camelback Rd,Family Dollar
Phoenix,AZ,33.554145,-112.136005,85051-6521,3542 W Northern Ave,Family Dollar
Phoenix,AZ,33.392077,-112.04638,85040-3533,1635 E Southern Ave,Family Dollar
Phoenix,AZ,33.493374,-112.219701,85033-3139,7421 W Indian School Rd,Family Dollar
Phoenix,AZ,33.509986,-112.094773,85015-3514,1628 W Camelback Rd,Family Dollar
Phoenix,AZ,33.481566,-112.200695,85033-5740,6544 W Thomas Rd Ste 15,Family Dollar
Phoenix,AZ,33.465269,-112.042084,85006-3052,1831 E Mcdowell Rd,Family Dollar
Phoenix,AZ,33.466712,-112.005089,85008-3904,1630 N 36th St,Family Dollar
Phoenix,AZ,33.583612,-112.099114,85029-4901,10645 N 19th Ave,Family Dollar
Phoenix,AZ,33.381958,-112.073912,85042-5423,7026 S Central Ave,Family Dollar
Phoenix,AZ,33.436073,-112.094319,85007-3518,1625 W Buckeye Rd,Family Dollar
Phoenix,AZ,33.466981,-112.184927,85035-4988,1623 N 59th Ave,Family Dollar
Phoenix,AZ,33.45939,-112.0309,85008-4906,1014 N 24th St  Ste 7,Family Dollar
Phoenix,AZ,33.49365,-112.24027,85037,8411 W Indian School Rd,Family Dollar
Phoenix,AZ,33.476538,-112.013294,85008-2148,2548 N 32nd St,Family Dollar
Phoenix,AZ,33.450789,-112.1367,85009-4106,3555 W Van Buren St,Family Dollar
Phoenix,AZ,33.39179,-112.09616,85041,1717 W Southern Ave.,Family Dollar
Phoenix,AZ,33.391788,-111.979841,85042,4725 East Southern Ave.,Family Dollar
Phoenix,AZ,33.465659,-112.149817,85009-2008,"4239 W. Mcdowell Rd., Ste. 24",Family Dollar
Phoenix,AZ,33.627861,-112.011413,85032,3202 E. Greenway Road,Family Dollar
Phoenix,AZ,33.452505,-112.204156,85043,400 N. 67th Ave,Family Dollar
Phoenix,AZ,33.397884,-112.072694,85040-8724,5255 S. Central Avenue,Family Dollar
Phoenix,AZ,33.495497,-112.129663,85017,3250 W Indian School Rd.,Family Dollar
Pinetop,AZ,34.124627,-109.925661,85935,2604 E White Mountain Blvd,Family Dollar
Prescott Valley,AZ,34.58735348,-112.33042376,86314-2229,7700 E State Route 69  Ste 1e,Family Dollar
Quartsite,AZ,33.667366,-114.209541,85346,470 E Main St,Family Dollar
Rio Rico,AZ,31.488895,-111.007112,85648-6222,1283 W Frontage Rd,Family Dollar
Salome,AZ,33.78288914,-113.61114721,85348,66952 Hope Lane,Family Dollar
Sanders,AZ,35.21004625,-109.32991205,86512,Highway 191 South Exit 339,Family Dollar
San Luis,AZ,32.493764,-114.781981,85349,725 Juan Sanchez Blvd,Family Dollar
San Manuel,AZ,32.602275,-110.631696,85631-1315,440 S Avenue A,Family Dollar
Seligman,AZ,35.32754305,-112.88212484,86337,22765 W Old Highway 66,Family Dollar
Show Low,AZ,34.249895,-110.040666,85901-4839,161 E Deuce Of Clubs Box #7,Family Dollar
Sierra Vista,AZ,31.555083,-110.299523,85635-1813,21 E Fry Blvd,Family Dollar
Sierra Vista,AZ,31.493097,-110.256663,85650-9510,4155 S Hwy 92,Family Dollar
Snowflake,AZ,34.508904,-110.07949,85937,36 S Main Street,Family Dollar
Somerton,AZ,32.596125,-114.704779,85350,531 East Main Street,Family Dollar
Stanfield,AZ,32.87971,-111.97919,85172,60 North Albany Way,Family Dollar
St Michaels,AZ,35.65714972,-109.09319348,86511,47337-C State Highway 264,Family Dollar
Sun City,AZ,33.607551,-112.269188,85351-2813,13602 N 99th Avenue,Family Dollar
Superior,AZ,33.289372,-111.101629,85173,580 W. Us Highway 60,Family Dollar
Tempe,AZ,33.415516,-111.915351,85281-5826,1344 E Apache Blvd,Family Dollar
Three Points,AZ,32.083039,-111.298654,85735,15564 W Ajo Highway,Family Dollar
Tolleson,AZ,33.4508,-112.26654,85353,9602 W Van Buren St,Family Dollar
Tombstone,AZ,31.71737262,-110.06936163,85638,208 N. Sumner Street,Family Dollar
Topock (Golden Shore,AZ,34.779996,-114.481282,86436,12961 S. Oatman Highway,Family Dollar
Tuba City,AZ,36.129215,-111.23938,86045-2508,1012 N Main St,Family Dollar
Tucson,AZ,32.119905,-111.027425,85746-9617,2820 W. Los Reales Road,Family Dollar
Tucson,AZ,32.074814,-110.959134,85756,9776 S. Nogales Highway,Family Dollar
Tucson,AZ,32.2511,-110.973,85705-5529,16 W. Grant Road,Family Dollar
Tucson,AZ,32.163433,-110.971855,85714,208 W Irvington Rd,Family Dollar
Tucson,AZ,32.207729,-110.897355,85711,4443 E 22nd St,Family Dollar
Tucson,AZ,32.178272,-110.993866,85713-5702,1340 W Ajo Way,Family Dollar
Tucson,AZ,32.237296,-110.872403,85712-5021,5629 E Speedway Blvd,Family Dollar
Tucson,AZ,32.228479,-110.99181,85745-3115,1231 W Saint Marys Rd,Family Dollar
Tucson,AZ,32.193737,-110.968877,85713-3498,2424 S 6th Ave,Family Dollar
Tucson,AZ,32.134575,-110.971202,85706-6820,194 W Valencia Rd,Family Dollar
Tucson,AZ,32.181787,-110.968749,85713-6112,3570 S 6th Ave,Family Dollar
Tucson,AZ,32.251259,-110.915416,85716-2933,3607 E Grant Rd,Family Dollar
Tucson,AZ,32.135159,-111.030464,85746-8426,2960 W Valencia Rd,Family Dollar
Tucson,AZ,32.148139,-110.955558,85706-4223,5713 South Park Avenue,Family Dollar
Tucson,AZ,32.159555,-111.000088,85746,5089 S Midvale Park Rd,Family Dollar
Tucson,AZ,32.152166,-110.978013,85706-3206,5530 S 12th Ave,Family Dollar
Tucson,AZ,32.185384,-111.090172,85713-5501,3191 S Kinney Rd,Family Dollar
Tucson,AZ,32.134126,-111.061072,85746-8709,4530 W. Valencia Rd,Family Dollar
Tucson,AZ,32.157215,-110.926968,85706,3088 Benson Highway,Family Dollar
Tucson,AZ,32.272909,-110.994481,85705-3115,1354 W Prince Road,Family Dollar
Tucson,AZ,32.325611,-111.218968,85743,6641 N. Sandario Road,Family Dollar
Wellton,AZ,32.67325,-114.14259,85356,28849 Los Angeles Avenue,Family Dollar
Wickenburg,AZ,33.966297,-112.733589,85390-3217,200 W Wickenburg Way,Family Dollar
Willcox,AZ,32.263954,-109.83737,85643,850 W Rex Allen Drive,Family Dollar
Williams,AZ,35.24784,-112.19667,86046-2229,901 West Route 66,Family Dollar
Winslow,AZ,35.035904,-110.699651,86047-2517,1537 N Park Dr,Family Dollar
Wittmann,AZ,33.7662,-112.515,85361,31206 N Us Highway 60,Family Dollar
Yuma,AZ,32.699041,-114.616878,85364-4700,432 East 16th St,Family Dollar
Yuma,AZ,32.718399,-114.624098,85364-2241,489 S 4th Avenue,Family Dollar
Yuma,AZ,32.713819,-114.647725,85364-2707,2298 W 8th St,Family Dollar
Yuma,AZ,32.7126,-114.667982,85364-3236,810 S Avenue C,Family Dollar
Yuma,AZ,32.666072,-114.409249,85367,11337 S. Foothills Blvd.,Family Dollar
Arkadelphia,AR,34.123471,-93.066555,71923,1550 Pine Street,Family Dollar
Ashdown,AR,33.66481786,-94.12159718,71822,650 Constitution Avenue,Family Dollar
Atkins,AR,35.247661,-92.938062,72823,603 North Church St.,Family Dollar
Batesville,AR,35.777858,-91.642162,72501-3018,1275 E Main St,Family Dollar
Beebe,AR,35.074829,-91.900675,72012-2004,1402 W Dewitt Henry Dr,Family Dollar
Blytheville,AR,35.9272,-89.926903,72315-3033,2001 W Main St,Family Dollar
Blytheville,AR,35.927101,-89.885597,72315-2622,941 E Main St,Family Dollar
Brinkley,AR,34.897969,-91.193799,72021-2304,820 N Main St,Family Dollar
Cabot,AR,34.952324,-92.009133,72023-3812,1302 S Pine Street,Family Dollar
Camden,AR,33.58249,-92.8342,71701,216 California Avenue,Family Dollar
Carlisle,AR,34.780078,-91.748467,72024,209 W Park St,Family Dollar
Clarendon,AR,34.693109,-91.311168,72029-2718,300 Madison St,Family Dollar
Clarksville,AR,35.468452,-93.479428,72830,400 South Crawford Street,Family Dollar
Clinton,AR,35.596566,-92.460407,72031-1022,1702 N Us 23,Family Dollar
Conway,AR,35.092319,-92.430178,72032,254 Oak Street,Family Dollar
Crossett,AR,33.13141959,-91.96051395,71635-2910,308 C Pine Street,Family Dollar
Danville,AR,35.05469322,-93.39117262,72833,301 E 8th Street,Family Dollar
Delight,AR,34.03136711,-93.5070249,71940-8000,109 E Antioch Street,Family Dollar
Dermott,AR,33.524239,-91.433427,71638,205 E Speedway Street,Family Dollar
Dewitt,AR,34.293041,-91.323952,72042,300 S. Whitehead Drive,Family Dollar
Dumas,AR,33.88922227,-91.48512338,71639-2319,439 E Choctaw Street,Family Dollar
Earle,AR,35.27620114,-90.46980551,72331,17668 Us Highway 64,Family Dollar
El Dorado,AR,33.215133,-92.666195,71730-5938,424 N West Ave,Family Dollar
England,AR,34.546881,-91.958182,72046-1417,1005 E Fordyce St,Family Dollar
Eudora,AR,33.111549,-91.25786,71640,2963 S Hwy 65,Family Dollar
Fordyce,AR,33.81195,-92.423166,71742-2217,1007 W 4th St,Family Dollar
Forrest City,AR,35.008474,-90.792303,72335,228 W Broadway St,Family Dollar
Fort Smith,AR,35.415694,-94.384504,72904-2216,3800 Midland Blvd,Family Dollar
Fort Smith,AR,35.35311,-94.413498,72901,3200 Jenny Lind Road,Family Dollar
Fort Smith,AR,35.391874,-94.38783,72904-6536,3960 N O St,Family Dollar
Fort Smith,AR,35.386487,-94.397268,72904-6736,3201 Grand Avenue,Family Dollar
Glenwood,AR,34.325433,-93.538858,71943-8800,180 Highway 70 E,Family Dollar
Green Forest,AR,36.335418,-93.42499,72638,802 E Main St Ste 1,Family Dollar
Gurdon,AR,33.916365,-93.148984,71743-1244,506 E. Main St.,Family Dollar
Hampton,AR,33.535944,-92.470332,71744,214 S Lee Street,Family Dollar
Harrisburg,AR,35.571309,-90.723374,72432-1248,608 N Illinois St,Family Dollar
Hope,AR,33.66166388,-93.58938057,71801-6524,815 S Main St,Family Dollar
Hot Springs,AR,34.504674,-93.049479,71901-5432,640 Malvern Ave,Family Dollar
Hot Springs,AR,34.494385,-93.100149,71913-4005,2100 Albert Pike Rd Ste J,Family Dollar
Hot Springs,AR,34.474014,-93.058194,71913-6279,3339 Central Ave,Family Dollar
Hot Springs,AR,34.46199541,-93.14802971,71913-5396,1880 Airport Rd  Ste J,Family Dollar
Hot Springs,AR,34.53087,-93.04858,71901-3004,899 Park Ave,Family Dollar
Hot Springs,AR,34.50664108,-93.12914165,71913,3242 Albert Pike Rd,Family Dollar
Jacksonville,AR,34.852227,-92.116434,72076-5509,1700 S Highway 161,Family Dollar
Jonesboro,AR,35.842084,-90.72507,72403-2519,106 S Gee St,Family Dollar
Jonesboro,AR,35.845712,-90.702317,72401,316 E Johnson Ave,Family Dollar
Litle Rock,AR,34.564497,-92.336125,72206-9217,20290 Arch St,Family Dollar
Little Rock,AR,34.72569,-92.29025,77206-2079,2408 Dr Martin Luther King Jr,Family Dollar
Little Rock,AR,34.741161,-92.324446,72204-1924,4514 W 12th St,Family Dollar
Little Rock,AR,34.66828,-92.31681,72209,3500 Baseline Road,Family Dollar
Little Rock,AR,34.670995,-92.345865,72209-4701,8824 Geyer Springs Rd,Family Dollar
Little Rock,AR,34.715421,-92.340415,72204-7832,3901 S University Ave,Family Dollar
Little Rock,AR,34.731249,-92.27276,72206-1471,1711 Main St,Family Dollar
Little Rock,AR,34.711222,-92.37068,72204-8229,8510 Colonel Glenn Rd,Family Dollar
Little Rock,AR,34.7234,-92.2637,72206-2410,801 E. Roosevelt Road,Family Dollar
Little Rock,AR,34.69090541,-92.33470118,72209-3818,5200 West 65th St,Family Dollar
Little Rock,AR,34.655494,-92.363562,72209,10422 Chicot Road,Family Dollar
Lonoke,AR,34.788777,-91.900382,72086-2546,604 N Center St,Family Dollar
Mablevale,AR,34.623492,-92.365067,72103-3528,14102 S Chicot Rd,Family Dollar
Magnolia,AR,33.26605,-93.235816,71753-3637,431 E Main St,Family Dollar
Malvern,AR,34.36385,-92.808611,72104,404 E Page Avenue,Family Dollar
Marianna,AR,34.774972,-90.766996,72360-2132,286 W Chestnut St,Family Dollar
Marion,AR,35.20914,-90.203249,72364-1956,138 Block St,Family Dollar
Marvell,AR,34.56002,-90.913391,72366,901 Hwy 49,Family Dollar
Mcgehee,AR,33.62944,-91.40239,71654,606 Holly Street,Family Dollar
Mena,AR,34.585145,-94.225819,71953-4394,601 Highway 71 N,Family Dollar
Monticello,AR,33.62996693,-91.8007528,71655,620 W Gaines Street,Family Dollar
Mount Ida,AR,34.550526,-93.62668,71957-0015,627 Highway 270 E,Family Dollar
N Little Rock,AR,34.773499,-92.199554,72117-3707,2121 Highway 161,Family Dollar
N Little Rock,AR,34.756371,-92.259697,72114-5764,715 E Broadway Street,Family Dollar
N Little Rock,AR,34.75649877,-92.21936726,72117-4120,4149 E Broadway St,Family Dollar
N Little Rock,AR,34.793517,-92.27148,72118-4610,4204 Camp Robinson Rd,Family Dollar
N Little Rock,AR,34.77952059,-92.27960154,72114-1926,2633 Pike Ave,Family Dollar
North Little Rock,AR,34.807186,-92.29451,72118,5613 Macarthur Drive,Family Dollar
North Little Rock,AR,34.79467438,-92.258344,72116-8264,4143 John F. Kennedy Blvd,Family Dollar
Ozark,AR,35.48839503,-93.83563419,72949,1008 W Commercial Street,Family Dollar
Paragould,AR,36.052122,-90.488892,72450-4229,300 W Kings Highway,Family Dollar
Perryville,AR,35.007199,-92.800119,72126-8005,416 S Fourche Ave,Family Dollar
Pine Bluff,AR,34.199489,-92.004985,71603-5439,2801 S Olive St,Family Dollar
Pine Bluff,AR,34.21349114,-92.01410764,71603,1169 W 16th Ave,Family Dollar
Pine Bluff,AR,34.243225,-92.060143,71602-4013,5316 Dollarway Rd,Family Dollar
Pine Bluff,AR,34.21794,-92.042727,71603-2315,1113 S Blake St,Family Dollar
Pine Bluff,AR,34.201328,-92.034781,71603-4805,3100 W 28th Ave,Family Dollar
Pine Bluff,AR,34.213996,-91.984454,71601-6823,1607 E Harding Ave.,Family Dollar
Pocahontas,AR,36.257855,-90.98516,72455-3640,2104 Highway 62 W,Family Dollar
Prescott,AR,33.806697,-93.375851,71857-3310,1100 West 1st Street N,Family Dollar
Rogers,AR,36.31036839,-94.11818464,72758-6402,1900 S 1st Street  Ste 6,Family Dollar
Rogers,AR,36.34211568,-94.15347464,72756-3167,2405 W Olive St,Family Dollar
Russellville,AR,35.267136,-93.121278,72802-6401,1200 S Knoxville Ave,Family Dollar
Searcy,AR,35.246792,-91.768033,72143-5018,2223 W Beebe Capps Expy,Family Dollar
Springdale,AR,36.196844,-94.139993,72764-1274,1302 North Thompson Street,Family Dollar
Springdale,AR,36.165981,-94.102398,72764,2601 East Robinson,Family Dollar
Springdale,AR,36.1924961,-94.16848983,72762,3503 Elm Springs Road,Family Dollar
Stuttgart,AR,34.485214,-91.552157,72160-6012,1823 S. Main Street,Family Dollar
Texarkana,AR,33.412422,-94.029473,71854-7405,900 East St,Family Dollar
Texarkana,AR,33.46152005,-94.02989673,71854-2247,3909 Jefferson Ave,Family Dollar
Texarkana,AR,33.431313,-94.030374,71854-5107,1213 E 9th St,Family Dollar
Trumann,AR,35.66654,-90.51236,72472,443 Highway 463 S,Family Dollar
Waldron,AR,34.900024,-94.09837,72958,651 W 2nd Street,Family Dollar
Walnut Ridge,AR,36.065698,-90.960325,72476-2637,500 Sw Front St,Family Dollar
Warren,AR,33.610563,-92.070605,71671-2817,317 S Martin St,Family Dollar
West Helena,AR,34.54721484,-90.64620264,72390-2447,233 N Sebastian St,Family Dollar
West Memphis,AR,35.1820147738693,-90.2138050753769,72301,1800 Family Dollar Parkway,Family Dollar
West Memphis,AR,35.13959948,-90.19296309,72301,420 S Avalon Street,Family Dollar
West Memphis,AR,35.167173,-90.188573,72301-1733,209 Shoppingway Blvd Ste B,Family Dollar
West Memphis,AR,35.145972,-90.158795,72301-3454,2113 E Broadway Street,Family Dollar
Wynne,AR,35.24286302,-90.78219921,72396-0591,1800 N Falls Blvd,Family Dollar
Adelanto,CA,34.57870259,-117.41323698,92301-1922,11545 Bartlett Avenue,Family Dollar
Atwater,CA,37.361675,-120.59758,95301-2906,451 Bellevue Rd #2,Family Dollar
Avenal,CA,36.004727,-120.129426,93204,601 Skyline Blvd,Family Dollar
Azusa,CA,34.114986,-117.906818,91702-4926,125 East Gladstone St.,Family Dollar
Bakersfield,CA,35.334109,-119.01602,93304-5243,2151 S. Chester Avenue,Family Dollar
Bakersfield,CA,35.375473,-118.93838,93306-4695,5905 Niles Street,Family Dollar
Bakersfield,CA,35.295169,-119.018659,93307,1507 Panama Lane,Family Dollar
Bakersfield,CA,35.377113,-118.969111,93305-5008,2110 Niles Street,Family Dollar
Bakersfield,CA,35.359601,-119.003962,93307,333 Union Avenue,Family Dollar
Baldwin Park,CA,34.088649,-117.959464,91706,14431 Ramona Blvd,Family Dollar
Banning,CA,33.92594,-116.893001,92220-4449,1481 W Ramsey Street,Family Dollar
Beaumont,CA,33.92889625,-116.97390452,92223-2219,649 E. 6th Ave.,Family Dollar
Bell,CA,33.979562,-118.199335,90201-1024,3705 Gage Avenue,Family Dollar
Bellflower,CA,33.889545,-118.13086,90706,9555 Alondra Blvd.,Family Dollar
Bishop,CA,37.360367,-118.3955,93514,201 S. Main,Family Dollar
Boron,CA,35.00026,-117.65606,93516,26645 Twenty Mule Team Rd,Family Dollar
Brawley,CA,32.978234,-115.518347,92227,1400 E. Main St.,Family Dollar
Calexico,CA,32.666412,-115.49289,92231,436 E. 2nd St,Family Dollar
California City,CA,35.12646633,-117.9575258,93505,9567 California City Blvd,Family Dollar
Coachella,CA,33.669021,-116.18114,92236,52226 Harrison Street,Family Dollar
Colton,CA,34.090697,-117.334373,92324,1831 N Rancho Avenue,Family Dollar
Compton,CA,33.8962,-118.22827,90220,379 W. Compton Blvd,Family Dollar
Copperopolis,CA,37.9366,-120.604,95228,3502 Spangler Lane,Family Dollar
Corcoran,CA,36.09784745,-119.57611268,93212,2217 Whitley Ave.,Family Dollar
Delano,CA,35.76779312,-119.24704676,93215,919 High Street,Family Dollar
Delano,CA,35.77548365,-119.22816915,93215-1513,1990 Cecil Avenue,Family Dollar
Dinuba,CA,36.554272,-119.393861,93618,1030 N Alta Avenue,Family Dollar
El Centro,CA,32.782541,-115.551318,92243-4741,1111 S Fourth St,Family Dollar
Escalon,CA,37.79396,-120.98811,95320,2043 Jackson Ave,Family Dollar
Fairfield,CA,38.262833,-122.033714,94533,1902 N. Texas Street,Family Dollar
Firebaugh,CA,36.858427,-120.458188,93622-2262,1020 N Street,Family Dollar
Fontana,CA,34.041996,-117.485159,92337,11647 Cherry Ave. # 200,Family Dollar
Fontana,CA,34.091267,-117.434516,92335,8933 Sierra Avenue,Family Dollar
Fontana,CA,34.107503,-117.454204,92336,8050 Citrus Ave.,Family Dollar
Fresno,CA,36.800906,-119.770605,93726-0400,3122 East Gettysburg Ave.,Family Dollar
Fresno,CA,36.794813,-119.8455,93722-4555,4027 N. Marks Ave.,Family Dollar
Fresno,CA,36.757877,-119.83419,93728,1928 W. Olive Avenue,Family Dollar
Fresno,CA,36.706348,-119.789453,93706,1810 E Jensen Avenue,Family Dollar
Fresno,CA,36.73619,-119.75757,93702-3501,4007 East Ventura Avenue,Family Dollar
Fresno,CA,36.720863,-119.809204,93706,238 E California Ave,Family Dollar
Fresno,CA,36.772033,-119.790179,93703-2114,2340 N Blackstone Avenue,Family Dollar
Fresno,CA,36.758727,-119.735239,93727-1808,4819 East Olive Avenue,Family Dollar
Fresno,CA,36.780387,-119.755904,93726-7007,3243 N. Cedar Ave.,Family Dollar
Fresno,CA,36.751662,-119.71975,93727,5167 E Belmont Avenue,Family Dollar
Galt,CA,38.255065,-121.301006,95632-1721,104 N. Lincoln Way,Family Dollar
Helendale,CA,34.7428,-117.336,92342,27046 Helendale Road,Family Dollar
Hemet,CA,33.746546,-116.948699,92544-4752,2249 E. Florida Avenue,Family Dollar
Hesperia,CA,34.425749,-117.327977,92345-3392,15385 Main Street,Family Dollar
Highland,CA,34.116413,-117.22535,92346,7563 Vicotira,Family Dollar
Highland,CA,34.121741,-117.207197,92346,27356 Baseline Street,Family Dollar
Holtville,CA,32.810401,-115.382982,92250-1114,308 W 5th Street,Family Dollar
Huron,CA,36.205802,-120.10414,93234,36301 S Lassen Avenue,Family Dollar
Indio,CA,33.726332,-116.216801,92201,44491 Jackson Street,Family Dollar
Ivanhoe,CA,36.385236,-119.214321,93235,16044 Avenue 328,Family Dollar
Kerman,CA,36.736443,-120.061428,93630-1030,15070 W Whitesbridge Avenue,Family Dollar
Kingsburg,CA,36.517204,-119.548848,93631-1913,1770 Draper St.,Family Dollar
Lake Elsinore,CA,33.68248,-117.36896,92530,31281 Riverside Drive,Family Dollar
Lake Isabella,CA,35.618385,-118.475749,93240,5500 Lake Isabella Blvd.,Family Dollar
Lake Los Angeles,CA,34.6158852,-117.82824443,93591,16830 E Avenue O,Family Dollar
Lamont,CA,35.260998,-118.91378,93241-1726,10415 Main Street,Family Dollar
Lancaster,CA,34.70482939,-118.15023464,93534-2200,101 W. Avenue I,Family Dollar
Littlerock,CA,34.52074254,-117.97989464,93543,8338 Pearblossom Highway,Family Dollar
Long Beach,CA,33.849865,-118.1852,90805,5117 Atlantic,Family Dollar
Los Angeles,CA,34.016216,-118.156995,90022,5311 E. Olympic Blvd.,Family Dollar
Los Angeles,CA,33.989396,-118.312846,90047,1955 W Slauson Avenue,Family Dollar
Los Angeles,CA,33.974487,-118.24875,90001-1937,1436 E. Florence Avenue,Family Dollar
Los Angeles,CA,33.973648,-118.308655,90047-2253,7300 S Western Avenue,Family Dollar
Madera,CA,36.971627,-120.042973,93638-1931,1440 E Yosemite Avenue,Family Dollar
Mecca,CA,33.569912,-116.07421,92254-6515,91279 2nd Street,Family Dollar
Mendota,CA,36.74981032,-120.38750604,93640,766 Derrick Ave.,Family Dollar
Merced,CA,37.29929094,-120.48217709,95340-4824,398 W 16th Street,Family Dollar
Merced,CA,37.29569748,-120.45566301,95340,1715 Yosemite Parkway,Family Dollar
Modesto,CA,37.63883,-120.898184,95357,5301 Yosemite Boulevard,Family Dollar
Modesto,CA,37.601487,-120.993014,95358-6103,1916 Crows Landing Road,Family Dollar
Modesto,CA,37.62637824,-121.01243506,95351-3105,448 Paradise Road,Family Dollar
Modesto,CA,37.67682,-120.97449,95355-2051,"2400 Coffee Road, Suite K",Family Dollar
Modesto,CA,37.637794,-120.99954,95354,801 9th St,Family Dollar
Mojave,CA,35.048303,-118.171296,93501,2343 Highway 58,Family Dollar
Moreno Valley,CA,33.937534,-117.247792,92553,23921 Sunnymead Blvd Ste A,Family Dollar
Moreno Valley,CA,33.9017,-117.227075,92551,15075 Perris Blvd,Family Dollar
Oildale,CA,35.420105,-119.03209,93308,600 Norris Rd,Family Dollar
Orange,CA,33.787103,-117.817291,92869-3813,3400 E Chapman Ave,Family Dollar
Orange Cove,CA,36.62516172,-119.31992484,93646,1150 Park Blvd.,Family Dollar
Orosi,CA,36.544425,-119.286564,93647,12835 Avenue 416,Family Dollar
Oroville,CA,39.501,-121.573,95965-5738,2130 Feather River Blvd,Family Dollar
Oxnard,CA,34.1480228,-119.18203397,93033-9022,445  W. Hueneme Rd,Family Dollar
Palmdale,CA,34.58068408,-118.07372669,93550,3157 E. Palmdale Blvd,Family Dollar
Paramount,CA,33.89607124,-118.17934869,90723-3709,6800 Somerset Boulevard,Family Dollar
Parlier,CA,36.60573,-119.531722,93648,"885 E. Manning Avenue, Suite 2",Family Dollar
Pixley,CA,35.97343482,-119.29243409,93256,339 N Park Drive,Family Dollar
Pollock Pines,CA,38.762076,-120.575622,95726-9548,6524 Pony Express Trail,Family Dollar
Pomona,CA,34.074884,-117.718379,91767-3728,1660 Indian Hill Blvd,Family Dollar
Porterville,CA,36.064598,-119.009649,93257-4871,303 E Olive Avenue Unit C,Family Dollar
Reedley,CA,36.605007,-119.432854,93654-2346,1540 E Manning Avenue,Family Dollar
Rialto,CA,34.107416,-117.380163,92376-4800,552 W. Foothill Blvd.,Family Dollar
Rialto,CA,34.120851,-117.373973,92376,271 W Base Line Road,Family Dollar
Rio Vista,CA,38.16172003,-121.69880554,94571,1001 State Highway 12,Family Dollar
Riverside,CA,33.924307,-117.440802,92503-3801,9185 Magnolia Ave.,Family Dollar
Riverside,CA,34.000288,-117.36377,92501-1828,1710 Main St.,Family Dollar
Riverside,CA,33.944175,-117.477696,92503,6155 Tyler Street,Family Dollar
Rosamond,CA,34.8647,-118.1608,93560,1617 W. Rosamond Blvd,Family Dollar
Sacramento,CA,38.47368121,-121.45079037,95823,4500 Mack Road,Family Dollar
Sacramento,CA,38.645485,-121.45861,95838,4207 Norwood Ave,Family Dollar
Salton City,CA,33.280391,-115.966912,92275,2108 Hwy 86 Service Rd,Family Dollar
San Bernardino,CA,34.120785,-117.309736,92411-1801,1137 W Base Line Street,Family Dollar
San Bernardino,CA,34.135311,-117.285722,92405-4030,2150 N Sierra Way,Family Dollar
San Diego,CA,32.696307,-117.086632,92113,5065 Logan Ave,Family Dollar
San Diego,CA,32.706658,-117.137512,92102-4002,2638 Imperial Avenue,Family Dollar
San Diego,CA,32.749507,-117.11212,92105-1321,3729 University Avenue,Family Dollar
Sanger,CA,36.705162,-119.55512,93657-3108,742 Academy Avenue,Family Dollar
San Jacinto,CA,33.7756152,-116.95821964,92583,1223 S San Jacinto Avenue,Family Dollar
San Joaquin,CA,36.60398,-120.18286,93660,21790 Colorado Ave.,Family Dollar
San Pedro,CA,33.742975,-118.288193,90731,111 S. Pacific Avenue,Family Dollar
San Ysidro,CA,32.54886,-117.03472,92173-3138,"601 E. San Ysidro Blvd, Suite",Family Dollar
Selma,CA,36.588422,-119.609092,93662-2215,3726 Mccall Avenue,Family Dollar
Shafter,CA,35.505062,-119.27794,93263-2072,163 Central Valley Highway,Family Dollar
South Gate,CA,33.95376,-118.204473,90280,3610 Firestone Blvd.,Family Dollar
South Gate,CA,33.949382,-118.218107,90280,9507 Long Beach Blvd,Family Dollar
Stockton,CA,37.939462,-121.24407,95205-7736,2006 E Mariposa Road,Family Dollar
Stockton,CA,37.966472,-121.302113,95204-5610,505 W Harding Way,Family Dollar
Stockton,CA,37.93006925,-121.26601417,95206,2350 S. Airport Way,Family Dollar
Stockton,CA,37.955196,-121.270836,95205,66 S. Wilson Way,Family Dollar
Taft,CA,35.144768,-119.466188,93268,1045 Kern Street,Family Dollar
Tehachapi,CA,35.127626,-118.468784,93561,655 Tucker Rd,Family Dollar
Terra Bella,CA,35.96286136,-119.04631295,93270,23524 Avenue 95,Family Dollar
Trona,CA,35.75881741,-117.37582297,93562,13247 Jones Street,Family Dollar
Tulare,CA,36.206582,-119.367981,93274,1420 W. Tulare Dr.,Family Dollar
Tulare,CA,36.197061,-119.330654,93274,1108 E. Bardsley Ave.,Family Dollar
Twentynine Palms,CA,34.138349,-116.05384894,92277,6345 Adobe Rd,Family Dollar
Visalia,CA,36.34377,-119.295716,93291-3019,1610 N. Dinuba Boulevard,Family Dollar
Vista,CA,33.210479,-117.230432,92084,943 E Vista Way,Family Dollar
Vista,CA,33.21692244,-117.24416093,92084,1281 N Santa Fe Avenue,Family Dollar
Westmorland,CA,33.0377,-115.6199,92281,223 E Main Street,Family Dollar
Whittier,CA,33.957212,-118.021105,90605,14153 Whittier Blvd,Family Dollar
Wilmington,CA,33.790279,-118.262791,90744-2638,1342 N Avalon Boulevard,Family Dollar
Woodlake,CA,36.416575,-119.096857,93286,250 East Antelope Avenue,Family Dollar
Akron,CO,40.15875,-103.211839,80720-1502,152 E 1st Street,Family Dollar
Alamosa,CO,37.461695,-105.876089,81101,1301 11th St,Family Dollar
Antonito,CO,37.079803,-106.009197,81120,809 Main Street,Family Dollar
Aurora,CO,39.738564,-104.84734,80011-6208,1395 N Peoria Street,Family Dollar
Aurora,CO,39.741944,-104.809268,80011-5955,15355 E Colfax Ave,Family Dollar
Aurora,CO,39.72646589,-104.84620528,80011-8229,620 Peoria St,Family Dollar
Aurora,CO,39.740475,-104.881432,80010-1860,9131 E Colfax Ave,Family Dollar
Aurora,CO,39.673897,-104.789235,80013-1587,16981 E Iliff Ave,Family Dollar
Aurora,CO,39.677786,-104.846648,80014-4935,2110 S Peoria Street,Family Dollar
Aurora,CO,39.722566,-104.866355,80010,465 Havana Street,Family Dollar
Aurora,CO,39.70807,-104.808381,80017-2066,15390 E Alameda Parkway,Family Dollar
Aurora,CO,39.695391,-104.773066,80017,1175 S Tower Rd,Family Dollar
Bayfield,CO,37.233486,-107.600245,81122,310 Bayfield Ctr. Dr.,Family Dollar
Bennett,CO,39.752416,-104.432347,80102,100 Bennett Avenue,Family Dollar
Brighton,CO,39.987452,-104.803967,80601-1929,1511 E Bridge St,Family Dollar
Brush,CO,40.255523,-103.636191,80723-2309,1305 W Edison St,Family Dollar
Buena Vista,CO,38.845032,-106.133438,81211,401 Us Highway 24 N,Family Dollar
Burlington,CO,39.300543,-102.272446,80807-1553,1759 Rose Ave,Family Dollar
Calhan,CO,39.0348565,-104.30911974,80808-8600,555 Crystola Street,Family Dollar
Center,CO,37.74865,-106.107941,81125,798 Worth St.,Family Dollar
Clifton,CO,39.07414711,-108.46003994,81520,479 32 Rd,Family Dollar
Clifton,CO,39.089245,-108.453119,81520-7609,3227 I-70 Business Loop,Family Dollar
Colorado City,CO,37.945813,-104.833829,81019,7077 Colorado 165,Family Dollar
Colorado Spgs,CO,38.787852,-104.756016,80916-3201,3069 S Academy Blvd,Family Dollar
Colorado Spgs,CO,38.824057,-104.779649,80910-2318,451 S Circle Dr,Family Dollar
Colorado Spgs,CO,38.75408337,-104.74080336,80911-1713,350 Main St,Family Dollar
Colorado Spgs,CO,38.837776,-104.785882,80909-6024,2325 E Boulder St,Family Dollar
Colorado Springs,CO,38.811983,-104.8228,80905,1520 S Nevada Avenue,Family Dollar
Colorado Springs,CO,38.811,-104.758,80910,3765 Verde Dr,Family Dollar
Colorado Springs,CO,38.88055,-104.75539,80917,3335-C N. Academy Blvd.,Family Dollar
Colorado Springs,CO,38.825863,-104.759512,80910-2628,3770 Airport Rd,Family Dollar
Colorado Springs,CO,38.898175,-104.745306,80918-2937,4609 Austin Bluffs Parkway,Family Dollar
Commerce City,CO,39.82754,-104.91819,80022-1913,6071 E 72nd Ave,Family Dollar
Commerce City,CO,39.813312,-104.918996,80022-3316,5947 E 64th Ave,Family Dollar
Cortez,CO,37.3451,-108.595,81321,324 S Broadway,Family Dollar
Cripple Creek,CO,38.747529,-105.186427,80813,347 West Carr Street,Family Dollar
Dacano,CO,40.08697,-104.929165,80514-9335,1020 8th St,Family Dollar
Del Norte,CO,37.679697,-106.360008,81132-3225,220 Grand Avenue,Family Dollar
Denver,CO,39.764236,-104.97276,80205,3360 Downing St.,Family Dollar
Denver,CO,39.825318,-105.007503,80221-7206,7067 Pecos St,Family Dollar
Denver,CO,39.783749,-104.847727,80239-2850,4701 Peoria St  #123,Family Dollar
Denver,CO,39.697347,-105.010663,80223-2928,1875 W Mississippi Ave,Family Dollar
Denver,CO,39.78439,-105.005585,80221-1503,1515 W 48th Ave.,Family Dollar
Denver,CO,39.74612337,-105.02572646,80204-1724,1845 Federal Blvd,Family Dollar
Denver,CO,39.665884,-105.024298,80236-2612,2792 S Federal Blvd,Family Dollar
Denver,CO,39.73287438,-105.05249291,80214-3004,998 Sheridan Blvd,Family Dollar
Denver,CO,39.689991,-104.923454,80222-3509,1467 S Holly St,Family Dollar
Denver,CO,39.73989,-104.89794,80220-2003,7740 E Colfax Ave,Family Dollar
Denver,CO,39.679385,-105.025821,80219-5429,2085 S Federal Blvd,Family Dollar
Denver,CO,39.757441,-104.940184,80207-3016,2848 Colorado Blvd,Family Dollar
Denver,CO,39.691947,-105.024116,80219,1340-B South Federal Blvd.,Family Dollar
Denver,CO,39.739604,-104.96683,80218,1700 E Colfax Avenue,Family Dollar
Denver,CO,39.783156,-104.775013,80249,4775 N Yampa Street,Family Dollar
Denver,CO,39.698644,-104.906751,80224-3516,"7150 Leetsdale Dr., Unit 180",Family Dollar
Dolores,CO,37.47468,-108.49617,81323,1009 Railroad Avenue,Family Dollar
Dove Creek,CO,37.766544,-108.91402,81324,468 Hwy 491,Family Dollar
Evans,CO,40.37858,-104.734221,80620,3630 35th Avenue,Family Dollar
Evans,CO,40.384999,-104.692275,80620-1506,825 31st St,Family Dollar
Fairplay,CO,39.22311276,-105.99336151,80440,1010 Castello Ave.,Family Dollar
Federal Heights,CO,39.863107,-105.011514,80260-5300,2010 W 92nd Ave,Family Dollar
Federal Heights,CO,39.867444,-105.024384,80260,9410 Federal Boulevard,Family Dollar
Fort Lupton,CO,40.079545,-104.810069,80621-1306,130 S Denver Ave,Family Dollar
Fort Morgan,CO,40.255101,-103.801053,80701,620 Main Street,Family Dollar
Fountain,CO,38.683625,-104.704107,80817,108 N. Santa Fe Ave.,Family Dollar
Fountain,CO,38.71950179,-104.69836117,80817,6960 Mesa Ridge Parkway,Family Dollar
Fowler,CO,38.130042,-104.015749,81039,706 East Cranston Avenue,Family Dollar
Fruita,CO,39.16153681,-108.74391391,81521-2042,1668 Us Highway 6 &amp; 50,Family Dollar
Georgetown,CO,39.716333,-105.694678,80444,1560 Argentine Street,Family Dollar
Grand Junction,CO,39.0921,-108.496,81504,3000 F Road,Family Dollar
Grand Junction,CO,39.040062,-108.538005,81503-2294,2776 Acrin Ave,Family Dollar
Greeley,CO,40.401805,-104.679002,80631-7211,130 22nd Street,Family Dollar
Greeley,CO,40.421791,-104.723759,80634-5421,2626 W 10th St,Family Dollar
Greeley,CO,40.42909,-104.690101,80631-2336,430 8th Ave,Family Dollar
Gypsum,CO,39.646445,-106.935268,81637,770 Red Table Drive,Family Dollar
Holyoke,CO,40.585987,-102.303309,80734-1451,143 W Denver Street,Family Dollar
Hotchkiss,CO,38.798233,-107.71205,81419,625 State Hwy 92 N,Family Dollar
Ignacio,CO,37.10908,-107.633606,81137,1001 Goddard Avenue,Family Dollar
Keenesburg,CO,40.112957,-104.520338,80643-9033,240 Market Street,Family Dollar
Kersey,CO,40.392516,-104.563582,80644,109 Hill Street,Family Dollar
Kremmling,CO,40.059226,-106.385791,80459,101 N. 9th St.,Family Dollar
La Jara,CO,37.275489,-105.961308,81140,217 Spruce St,Family Dollar
La Junta,CO,37.987645,-103.535164,81050-1833,614 East 1st St,Family Dollar
Lakewood,CO,39.715994,-105.053949,80226-2445,95 S Sheridan Blvd,Family Dollar
Lakewood,CO,39.739622,-105.091368,80215-4009,8400 W Colfax Ave,Family Dollar
Lamar,CO,38.075881,-102.617643,81052-3819,1303 S Main St,Family Dollar
La Salle,CO,40.348688,-104.706442,80645-3005,165 S 2nd Street,Family Dollar
Las Animas,CO,38.0656,-103.22031,81054-1713,307 6th Street,Family Dollar
Leadville,CO,39.253787,-106.29078,80461-3050,1100 Poplar St,Family Dollar
Littleton,CO,39.612374,-105.006409,80120-2136,1500 W Littleton Blvd #106,Family Dollar
Lochbuie,CO,40.001169,-104.748187,80603,160 Freestone St.,Family Dollar
Longmont,CO,40.17493,-105.1044,80501-4529,750 W 9th St,Family Dollar
Loveland,CO,40.42313,-105.073449,80538-2721,281g E 29th St  Ste 350,Family Dollar
Mancos,CO,37.3479,-108.296,81328-8110,560 W Menefee Street,Family Dollar
Meeker,CO,40.037715,-107.907571,81641,184 Market St.,Family Dollar
Monte Vista,CO,37.572861,-106.124023,81144-9344,1369 Us Highway 160 E,Family Dollar
Montrose,CO,38.486894,-107.885707,81401-3061,940 North Townsend Ave,Family Dollar
Naturita,CO,38.21639,-108.56644,81424,131 E Main Street,Family Dollar
Northglenn,CO,39.899096,-104.964856,80233-3206,1750 E 112th Ave,Family Dollar
Olathe,CO,38.616972,-107.984536,81425,901 N Highway 50,Family Dollar
Ordway,CO,38.214939,-103.748573,81063-1406,480 E 1st Street,Family Dollar
Parachute,CO,39.45103,-108.050655,81635,98 Cardinal Way,Family Dollar
Pueblo,CO,38.245627,-104.460138,81006,35969 E Us Business 50,Family Dollar
Pueblo,CO,38.295095,-104.615829,81003-3641,2639 N Elizabeth St,Family Dollar
Pueblo,CO,38.246313,-104.646356,81005-2021,1151-A S Prairie Ave,Family Dollar
Pueblo,CO,38.24613694,-104.58346663,81006-1429,1405 Santa Fe Dr,Family Dollar
Pueblo,CO,38.244444,-104.623997,81004-2581,1111 W Northern Ave,Family Dollar
Pueblo,CO,38.260043,-104.622553,81004-4224,122 West Abriendo Ave,Family Dollar
Pueblo,CO,38.28707,-104.574408,81001-5628,2001 Troy Ave,Family Dollar
Pueblo,CO,38.220524,-104.642917,81005-3167,2722 S Prairie Avenue,Family Dollar
Pueblo,CO,38.287805,-104.594811,81001,1102 Bonforte Boulevard,Family Dollar
Pueblo West,CO,38.319855,-104.704032,81007,230 S Purcell Blvd,Family Dollar
Rangely,CO,40.087802,-108.79732,81648,600 E. Main Street,Family Dollar
Ridgway,CO,38.150842,-107.747046,81432,283 Palomino Trail,Family Dollar
Rocky Ford,CO,38.052085,-103.714378,81067-1821,1275 Elm Ave,Family Dollar
San Luis,CO,37.205683,-105.425644,81152,901 Sr 159,Family Dollar
Silver Cliff,CO,38.136411,-105.457295,81252,35 Main St.,Family Dollar
Sterling,CO,40.634251,-103.201112,80751-2768,100 Broadway St,Family Dollar
Thornton,CO,39.8832506,-104.93947743,80229-2703,10360 Colorado Boulevard,Family Dollar
Thornton,CO,39.84811,-104.99467,80260,636 W 84th Ave.,Family Dollar
Thornton,CO,39.856813,-104.976143,80229-4581,831 E 88th Ave,Family Dollar
Trinidad,CO,37.18816624,-104.49563713,81082-1210,2102 Freedom Rd,Family Dollar
Walden,CO,40.731147,-106.282322,80480,400 Main Street,Family Dollar
Walsenburg,CO,37.63475,-104.788643,81089-2477,802 Walsen Ave,Family Dollar
Wellington,CO,40.701797,-105.000898,80549,8099 6th Ave,Family Dollar
Bloomfield,CT,41.836828,-72.737119,06002-2034,38 Tunxis Avenue,Family Dollar
Bridgeport,CT,41.171209,-73.205871,06605,1175 State Street,Family Dollar
Bristol,CT,41.6723,-72.946538,06010-8105,59 N Main St,Family Dollar
Canaan,CT,42.024568,-73.321157,06018-2509,11 East Main St.,Family Dollar
Danbury,CT,41.394196,-73.451624,06810-6614,199 Main St Ste 201,Family Dollar
Derby,CT,41.33196,-73.0838,06418,26 Pershing Dr,Family Dollar
East Hartford,CT,41.77877801,-72.6121649,06108,627 Burnside Ave.,Family Dollar
East Hartford,CT,41.736165,-72.627962,06118-3234,180 Main St,Family Dollar
East Hartford,CT,41.794292,-72.6211,06108-1176,265 Ellington Rd,Family Dollar
East Hartford,CT,41.784332,-72.589195,06108-1508,1150 Burnside Ave,Family Dollar
East Haven,CT,41.320871,-72.852849,06513-1863,684 Foxon Rd,Family Dollar
Enfield,CT,41.986891,-72.512421,06082,585 Hazard Avenue,Family Dollar
Hamden,CT,41.346208,-72.932096,06514-4132,1245 Dixwell Ave.,Family Dollar
Hartford,CT,41.768135,-72.694092,06105-3602,190 Farmington Ave,Family Dollar
Hartford,CT,41.781173,-72.675757,06120-2312,1870 Main St,Family Dollar
Hartford,CT,41.73748,-72.675903,06114-2517,435 Franklin Ave,Family Dollar
Hartford,CT,41.759289,-72.699226,06106-2239,1200 Park St.,Family Dollar
Hartford,CT,41.758304,-72.683904,06106,426 Park St.,Family Dollar
Hartford,CT,41.803596,-72.695516,06112-1267,615 Blue Hills Ave.,Family Dollar
Manchester,CT,41.780337,-72.533502,06040-4037,261 Broad St,Family Dollar
Meriden,CT,41.539444,-72.825234,06451-2710,560 West Main Street,Family Dollar
Meriden,CT,41.525993,-72.757545,06450,1324 East Main Street,Family Dollar
Naugatuck,CT,41.473509,-73.042377,06770-4762,799 New Haven Rd,Family Dollar
Naugatuck,CT,41.50107,-73.05116,06770-2812,85 Bridge Street,Family Dollar
New Britain,CT,41.670809,-72.783011,06051-1859,85 Myrtle Street,Family Dollar
New Britain,CT,41.68234181,-72.77727577,06053,289 Allen St.,Family Dollar
New Haven,CT,41.32902,-72.9696,06515,1168 Whalley Ave,Family Dollar
New Haven,CT,41.314436,-72.93533864,06511-3218,81 Whalley Ave,Family Dollar
Newington,CT,41.671169,-72.753264,06111-4351,733 New Britain Ave,Family Dollar
New London,CT,41.360653,-72.10986,06320,280 Broad St,Family Dollar
New London,CT,41.346792,-72.106416,06320-3414,48 Ocean Ave,Family Dollar
Norwich,CT,41.55240623,-72.0516865,06360-2511,59 Norwich Avenue,Family Dollar
Norwich,CT,41.520642,-72.094353,06360-5416,425 W Main St,Family Dollar
Plainville,CT,41.671869,-72.85914,06062,32 East Street,Family Dollar
Portland,CT,41.569501,-72.6262,06480-1921,352 Marlborough St,Family Dollar
Stafford Springs,CT,41.96585,-72.32682,06076-1010,63 W Stafford Road,Family Dollar
Stratford,CT,41.193668,-73.153433,06614-5213,310 Boston Ave,Family Dollar
Stratford,CT,41.17149,-73.128322,06615,60 Access Rd,Family Dollar
Vernon Rockville,CT,41.867025,-72.469673,06066-2438,42 Windsor Avenue,Family Dollar
Wallingford,CT,41.488488,-72.808324,06492-1818,978 N Colony Rd (U. S. Route 5,Family Dollar
Waterbury,CT,41.561037,-73.039269,06710-2305,91 Cooke Street,Family Dollar
Waterbury,CT,41.5761,-73.027,06704,1805 N. Main St.,Family Dollar
Waterbury,CT,41.5592,-73.01308,06705-1342,625 Wolcott St,Family Dollar
Waterbury,CT,41.555266,-73.040436,06706-1011,25 S Main St,Family Dollar
Waterbury,CT,41.55218599,-73.00941391,06705-1429,90 Store Ave,Family Dollar
West Hartford,CT,41.730808,-72.716338,06110-2230,939 New Britain Ave,Family Dollar
West Haven,CT,41.283841,-72.980759,06516-1744,1055 Orange Ave,Family Dollar
West Haven,CT,41.258933,-72.947568,06516-5935,238 Capt Thomas Blvd,Family Dollar
West Haven,CT,41.296766,-72.957075,06516-2026,163 Boston Post Rd,Family Dollar
Wethersfield,CT,41.724096,-72.669191,06109,125 Silas Deane Hwy (Sr 99),Family Dollar
Willimantic,CT,41.71416203,-72.20030708,06226,165 Main Street,Family Dollar
Willimantic,CT,41.723838,-72.237871,06226-1100,1601 Main St (Ct Route 32),Family Dollar
Windsor,CT,41.819966,-72.654854,06095-4046,512 Windsor Ave,Family Dollar
Windsor Locks,CT,41.927788,-72.628707,06096,20 Main St Unit 10,Family Dollar
Bridgeville,DE,38.718624,-75.586738,19933,9577 Bridgeville Center Rd #6,Family Dollar
Cheswold,DE,39.222067,-75.578782,19936,670 Main Street,Family Dollar
Claymont,DE,39.804336,-75.456505,19703-3111,3605 Philadelphia Pike,Family Dollar
Delmar,DE,38.457664,-75.559672,19940-3527,38650 Sussex Hwy  Unit 3,Family Dollar
Dover,DE,39.157093,-75.528445,19904-3250,300 W Loockerman Street,Family Dollar
Dover,DE,39.178695,-75.529162,19901-3904,1007 N State St,Family Dollar
Dover,DE,39.125877,-75.532686,19904-7047,1720 S Governors Ave,Family Dollar
Frederica,DE,39.007025,-75.474087,19946,126 Front Street,Family Dollar
Harrington,DE,38.92533,-75.56886,19952-2477,17092 S Dupont Hwy,Family Dollar
Hartly,DE,39.16836809,-75.71431828,19953,12 Main Street,Family Dollar
Laurel,DE,38.548183,-75.56984,19956,1118 S Central Avenue,Family Dollar
Laurel,DE,38.573886,-75.566805,19956,30214 Sussex Hwy. Unit 1,Family Dollar
Marydel,DE,39.11166264,-75.74401761,19964,14 East Street,Family Dollar
Middletown,DE,39.452429,-75.717023,19709-1036,301 N Broad St,Family Dollar
Milford,DE,38.916214,-75.42456,19963-1431,237 Ne Front St,Family Dollar
Millsboro,DE,38.582927,-75.291741,19966,28541 Dupont Blvd Unit 2,Family Dollar
Milton,DE,38.789207,-75.313881,19968-1008,122 Broadkill Rd,Family Dollar
Newark,DE,39.69389497,-75.71823432,19711-5591,27 Possum Park Mall,Family Dollar
Newark,DE,39.663754,-75.727345,19713-3702,20 Marrows Rd,Family Dollar
New Castle,DE,39.693108,-75.555678,19720-7705,2082 New Castle Avenue,Family Dollar
Rehoboth,DE,38.729916,-75.137037,19971,35524 Hudson Way,Family Dollar
Seaford,DE,38.647769,-75.609902,19973-1535,535 Stein Hwy,Family Dollar
Selbyville,DE,38.459274,-75.231872,19975-9614,38223 Dupont Blvd #2,Family Dollar
Smyrna,DE,39.295592,-75.619259,19977,701 W Glenwood Avenue,Family Dollar
Wilmington,DE,39.743746,-75.535687,19802-5183,1200 Northeast Blvd,Family Dollar
Wilmington,DE,39.749665,-75.5271269,19802,2600 Northeast Blvd.,Family Dollar
Wilmington,DE,39.73919,-75.60921,19805,2021 Kirkwood Hwy,Family Dollar
Wilmington,DE,39.72799626,-75.62070699,19804,1311 Newport Gap Pike,Family Dollar
Wilmington,DE,39.7447165,-75.56109927,19805-3601,1005 W 4th St  Ste 1009,Family Dollar
Wilmington,DE,39.73183,-75.57540073,19805-4605,1914 Maryland Ave,Family Dollar
Wilmington,DE,39.753629,-75.511486,19802-1705,4331 Governor Printz Blvd.,Family Dollar
Washington,DC,38.96563266,-77.02715,20011-5111,6217 Georgia Ave Nw,Family Dollar
Washington,DC,38.89995,-76.99068,20002-4442,1121 H St Ne,Family Dollar
Washington,DC,38.93012,-76.97318,20018-2828,2305 Rhode Island Ave.Ne,Family Dollar
Alachua,FL,29.79785034,-82.49952271,32615-4887,15535 Nw Us Highway 441,Family Dollar
Altamonte Springs,FL,28.66109,-81.40183,32714-4108,"488 W Hwy 436, Unit #1020",Family Dollar
Anthony,FL,29.288083,-82.112046,32617-3504,9450 Ne Jacksonville Road,Family Dollar
Apalachicola,FL,29.715474,-85.005713,32320-1238,415 Us Hwy 98,Family Dollar
Apopka,FL,28.656204,-81.47101484,32703,1489 S. Orange Blossom Trail,Family Dollar
Apopka,FL,28.670933,-81.490987,32703-3708,737 S. Orange Blossom Trl,Family Dollar
Apopka,FL,28.677301,-81.519421,32712,334 W. Main St.,Family Dollar
Apopka,FL,28.702874,-81.508664,32712,1319 Rock Springs Rd,Family Dollar
Arcadia,FL,27.208215,-81.861116,34266-4202,403 S Brevard Ave,Family Dollar
Archer,FL,29.536094,-82.519632,32618,520 N University Ave.,Family Dollar
Atlantic Beach,FL,30.355408,-81.41405,32233-2895,2440 Mayport Road,Family Dollar
Auburndale,FL,28.05922569,-81.78627292,33823-4204,220 Magnolia Avenue,Family Dollar
Auburndale,FL,28.072629,-81.816894,33823-2846,1058 Berkley Road,Family Dollar
Auburndale,FL,28.048331,-81.85814,33823,5012 Us Highway 92 E.,Family Dollar
Avon Park,FL,27.596785,-81.515034,33825-3054,101 Us 27 North,Family Dollar
Bartow,FL,27.890989,-81.828787,33830,775 Us Highway 17 S,Family Dollar
Bartow,FL,27.902579,-81.842485,33830-3829,155 E Van Fleet Drive,Family Dollar
Bell,FL,29.763009,-82.865678,32619,1728 N Main Street,Family Dollar
Belle Glade,FL,26.681325,-80.683354,33430-3608,533 Southwest 16th Street,Family Dollar
Belle Glade,FL,26.69727604,-80.66911609,33430-1900,101 Nw Avenue L,Family Dollar
Belleview,FL,29.04615862,-81.98670517,34420,10040 E. Highway 25,Family Dollar
Belleview,FL,29.057982,-82.052966,34420-4028,5810 Se Abshier Blvd,Family Dollar
Blountstown,FL,30.442775,-85.054253,32424-1936,20118 Central Ave W  Ste 2,Family Dollar
Bonifay,FL,30.786461,-85.679482,32425-3033,702 S Waukesha Street,Family Dollar
Bradenton,FL,27.47075721,-82.54627703,34208,1508 32nd Avenue E,Family Dollar
Bradenton,FL,27.48167,-82.576268,34205-7137,1920 14th St W,Family Dollar
Bradenton,FL,27.4964,-82.546439,34208,1525 Manatee Avenue East,Family Dollar
Bradenton,FL,27.441535,-82.574414,34207-3610,5627 14th St. West,Family Dollar
Bradenton,FL,27.461273,-82.607738,34210-3146,4665 Cortez Road West,Family Dollar
Bradenton,FL,27.467675,-82.56425,34208-4444,3626 1st Street,Family Dollar
Brandon,FL,27.89275,-82.295065,33511-7701,821west  Bloomingdale Ave.,Family Dollar
Branford,FL,29.956385,-82.923693,32008,102 Sw Us Hwy 27,Family Dollar
Brooksville,FL,28.52397391,-82.29793155,34602-7984,26433 Cortez Blvd.,Family Dollar
Brooksville,FL,28.552098,-82.395081,34601-2844,671 S Broad St,Family Dollar
Bunnell,FL,29.468507,-81.254468,32110,607 E Moody Blvd.,Family Dollar
Bushnell,FL,28.666091,-82.11296,33513-5406,316 N Main Street,Family Dollar
Cantonment,FL,30.620151,-87.324871,32533-9595,734 N Highway 29,Family Dollar
Cape Coral,FL,26.61429647,-81.97479101,33993,2012 Santa Barbara Blvd.,Family Dollar
Cape Coral,FL,26.562507,-81.966612,33904-8772,340 Cape Coral Parkway E,Family Dollar
Century,FL,30.996799,-87.259498,32535,9441 N Century Blvd,Family Dollar
Christmas,FL,28.51401044,-81.06332875,32709,20836 State Road 520,Family Dollar
Citra,FL,29.41499293,-82.10959844,32113,18215 N. Us Highway 301,Family Dollar
Citrus Springs,FL,29.002928,-82.464818,34434-4040,9581 N Citrus Springs Blvd,Family Dollar
Clearwater,FL,27.977619,-82.796345,33755-3126,1200 N Myrtle Avenue,Family Dollar
Clearwater,FL,27.964408,-82.786876,33755-4908,1215 Cleveland St,Family Dollar
Clearwater,FL,27.959524,-82.768526,33755,1659 Gulf To Bay,Family Dollar
Clermont,FL,28.56533192,-81.73221802,34711,450 Citrus Tower Blvd.,Family Dollar
Clewiston,FL,26.753037,-80.94537726,33440-2704,888 W Sugarland Hwy,Family Dollar
Cocoa,FL,28.43126824,-80.76056757,32926-5934,3955 N Highway 1,Family Dollar
Cocoa,FL,28.35527858,-80.74354208,32922-8615,1049 King Street,Family Dollar
Cocoa,FL,28.4680387,-80.79886437,32927,4755 Fay Blvd,Family Dollar
Cocoa,FL,28.372453,-80.753527,32922-6384,1072 Clearlake Rd,Family Dollar
Cottondale,FL,30.793111,-85.37621008,32431,3110 Main Street,Family Dollar
Crescent City,FL,29.443653,-81.512202,32112-1724,915 N Summit St,Family Dollar
Cross City,FL,29.633084,-83.124341,32628,16688 Se Hwy 19,Family Dollar
Crystal River,FL,28.882531,-82.542158,34429,6440 W Gulf To Lake Highway,Family Dollar
Dade City,FL,28.374065,-82.191038,33523-2804,14831 Us Highway 301,Family Dollar
Davenport,FL,28.220013,-81.641625,33837,2200 Deer Creek Commerce Lane,Family Dollar
Davenport,FL,28.161752,-81.600797,33836,204 Hwy 17-92 North,Family Dollar
Davie,FL,26.047052,-80.232866,33314-7126,6441 Stirling Road,Family Dollar
Daytona Beach,FL,29.222635,-81.039505,32117-4716,715 Mason Ave,Family Dollar
Daytona Beach,FL,29.176487,-81.026999,32114-5815,1523 S. Nova Rd.,Family Dollar
Daytona Beach,FL,29.21652561,-81.05613947,32117-4635,1134 Mason Avenue,Family Dollar
Daytona Beach,FL,29.212984,-81.02459,32114-3244,200 N. Ridgewood Ave.,Family Dollar
Deerfield Beach,FL,26.276311,-80.134735,33064-2002,837 W Sample Rd,Family Dollar
Defuniak Springs,FL,30.72219317,-86.11948281,32433-7336,65 Us Highway 90 East,Family Dollar
Deland,FL,29.026779,-81.297833,32724-5510,332 E New York Ave,Family Dollar
Deland,FL,29.01274019,-81.32204431,32720-8479,915 S Spring Garden Ave,Family Dollar
Deltona,FL,28.910374,-81.267396,32725-3251,2120 Saxon Blvd,Family Dollar
Deltona,FL,28.903074,-81.173131,32738,1401 Howland Blvd,Family Dollar
Deltona,FL,28.94432484,-81.22702449,32725-2902,2901 Howland Blvd,Family Dollar
Dover,FL,27.99722302,-82.21038527,33527-4312,14618 Dr Martin Luther King Jr,Family Dollar
Dundee,FL,28.019046,-81.628355,33838,600 Dundee Road,Family Dollar
Dunedin,FL,28.020099,-82.766843,34698-6241,1420 Main Street,Family Dollar
East Palatka,FL,29.645236,-81.606758,32131,164 South U.S. Highway 17  Uni,Family Dollar
Eastpoint,FL,29.735523,-84.89126,32328,198 Us Highway 98,Family Dollar
Eatonville,FL,28.61850698,-81.38345147,32751-5300,111 East Kennedy Boulevard,Family Dollar
Edgewater,FL,28.97036,-80.893506,32141-4201,109 E Boston Rd,Family Dollar
Eustis,FL,28.853392,-81.671488,32726,1309 East Orange Avnue,Family Dollar
Eustis,FL,28.827766,-81.686973,32726-6241,100 W Ardice Ave,Family Dollar
Floral City,FL,28.759153,-82.294448,34436,7150 S. Florida Avenue,Family Dollar
Florida City,FL,25.448055,-80.491646,33034-3104,904 W Palm Drive,Family Dollar
Fort Lauderdale,FL,26.15111669,-80.18516367,33311,3021 Nw 19th Street,Family Dollar
Fort Lauderdale,FL,26.06295136,-80.18124194,33312,2901 Griffin Road,Family Dollar
Fort Lauderdale,FL,26.103471,-80.188368,33312-2766,3240 Davie Blvd,Family Dollar
Fort Lauderdale,FL,26.137015,-80.155693,33311,951 West Sunrise Blvd,Family Dollar
Fort Lauderdale,FL,26.15291334,-80.15535647,33311,Nw 1939b 9th Ave.,Family Dollar
Fort Lauderdale,FL,26.10685,-80.179138,33312-2926,2789 Davie Blvd,Family Dollar
Fort Lauderdale,FL,26.136934,-80.179581,33311-5759,2711 W Sunrise Blvd.,Family Dollar
Fort Lauderdale,FL,26.12811,-80.15006372,33311,520 Nw 7th Avenue,Family Dollar
Fort Lauderdale,FL,26.12081794,-80.18519482,33312,3050 West Broward Blvd.,Family Dollar
Fort Myers,FL,26.65421884,-81.81271245,33905,1270 Ortiz Avenue,Family Dollar
Fort Myers,FL,26.667601,-81.830399,33916-3410,4143 Palm Beach Blvd,Family Dollar
Fort Myers,FL,26.617281,-81.870637,33901-7102,3269 Cleveland Ave,Family Dollar
Fort Myers,FL,26.683633,-81.885154,33903-3719,50 Pine Island Rd  Ste 2,Family Dollar
Fort Myers,FL,26.687006,-81.864632,33917-8003,5660 Bayshore Road,Family Dollar
Fort Myers,FL,26.59352,-81.872779,33907,4650 S. Cleveland Ave.,Family Dollar
Fort Myers,FL,26.492335,-81.812824,33912,8291 Aloha Road,Family Dollar
Fort Myers,FL,26.636503,-81.862622,33901-3806,2222 Fowler Street,Family Dollar
Fort Myers,FL,26.674946,-81.814044,33905,4712 Palm Beach Blvd.,Family Dollar
Fort Pierce,FL,27.43536604,-80.34980464,34947,1210 S 25th Street,Family Dollar
Fort Pierce,FL,27.375529,-80.327748,34982-7010,4939 S Us Highway 1,Family Dollar
Fort Pierce,FL,27.427419,-80.327882,34950-5149,2047 S Us Highway 1,Family Dollar
Fort Pierce,FL,27.44758,-80.34189,34950,1712 Orange Avenue,Family Dollar
Fort Walton Bch,FL,30.450793,-86.63789,32547-1402,913-C Beal Pky Nw,Family Dollar
Fountain,FL,30.490226,-85.417938,32438-2272,18815 Highway 231,Family Dollar
Frostproof,FL,27.756221,-81.528934,33843-1713,19 E  H St,Family Dollar
Fruitland Park,FL,28.861977,-81.908552,34731,106 W Miller Street,Family Dollar
Ft. Pierce,FL,27.45344173,-80.36094609,34947-2640,3500 Avenue D,Family Dollar
Ft. Walton Beach,FL,30.411514,-86.605021,32548-5422,4 Eglin Parkway Se,Family Dollar
Ft. White,FL,29.919863,-82.708808,32038-3393,7323 Sw Us Highway 27,Family Dollar
Gainesville,FL,29.661973,-82.326118,32601-2347,1028 N Main St,Family Dollar
Gainesville,FL,29.647112,-82.294666,32641-7552,2286 Se Hawthorne Rd,Family Dollar
Gainesville,FL,29.699831,-82.368847,32605-1150,5007a Nw 34th St,Family Dollar
Gainesville,FL,29.6742,-82.321098,32609,508 Ne 23rd Avenue,Family Dollar
Gibsonton,FL,27.841054,-82.380367,33534-4738,11110 Us Hwy 41 S,Family Dollar
Graceville,FL,30.9569,-85.5162,32440-2241,5345 Brown Street,Family Dollar
Greenacres,FL,26.63140313,-80.12246458,33463,5055 10th Avenue N,Family Dollar
Groveland,FL,28.560219,-81.855778,34736-2510,108 W Broad St (State Route 50,Family Dollar
Haines City,FL,28.11992476,-81.61834103,33844,1336 Us 17/92,Family Dollar
Haines City,FL,28.105478,-81.618963,33844-4908,1683 E Hinson Ave,Family Dollar
Hallandale,FL,25.985878,-80.155812,33009-5331,680 W Hallandale Beach Blvd,Family Dollar
Hallandale Beach,FL,25.99608882,-80.15666681,33009-2243,633 W Pembroke Road,Family Dollar
Havana,FL,30.631824,-84.414821,32333-1304,104 E 1st Ave,Family Dollar
Hawthorne,FL,29.599597,-82.08549,32640-7316,6005 Southeast Us Hwy. 301,Family Dollar
Hialeah,FL,25.88151795,-80.29092292,33012,6501 W 4th Avenue,Family Dollar
Hialeah,FL,25.82619517,-80.27971292,33010,90 E 5th Street,Family Dollar
Hialeah,FL,25.871664,-80.317094,33012,5362 W 16th Ave,Family Dollar
Hialeah,FL,25.832364,-80.259803,33010-3767,901 E 10th Ave  Ste #23,Family Dollar
Hialeah,FL,25.85271072,-80.28207998,33012,3333 Palm Avenue,Family Dollar
Hialeah,FL,25.839417,-80.289448,33010,1999 West 4th Avenue,Family Dollar
Hialeah Gardens,FL,25.87556513,-80.34011529,33018-4502,11291 Nw 87th Ct.,Family Dollar
Hialeah Gardens,FL,25.868829,-80.331787,33016-2202,8250 Nw 103rd St,Family Dollar
High Springs,FL,29.831791,-82.597213,32643-4314,19314 Nw Us Highway 441,Family Dollar
Hilliard,FL,30.683785,-81.913407,32046,551477 King Rd,Family Dollar
Holiday,FL,28.207682,-82.737899,34691-1846,3328 Us Hwy 19,Family Dollar
Holiday,FL,28.1884791,-82.72291117,34690-4501,1996 Grand Blvd,Family Dollar
Holiday,FL,28.17507636,-82.74849112,34691-5216,1103 Alternate Highway 19,Family Dollar
Holly Hill,FL,29.235445,-81.06574,32117,1275 Lpga Blvd,Family Dollar
Hollywood,FL,26.019194,-80.168902,33021,3031 Johnson Street,Family Dollar
Hollywood,FL,26.025867,-80.223663,33024-3902,6785 Taft St,Family Dollar
Hollywood,FL,26.031035,-80.20753,33021-3203,2319 N. 60th Ave.,Family Dollar
Hollywood,FL,25.99933,-80.143099,33020-6342,1424 South Federal Highway,Family Dollar
Homestead,FL,25.47007622,-80.48010283,33030,109 W Mowry Drive,Family Dollar
Homestead,FL,25.46402669,-80.493214,33030,601 Sw 14th Ave,Family Dollar
Homestead,FL,25.485701,-80.463727,33033-3217,30378 S Dixie Hwy,Family Dollar
Homestead,FL,25.501152,-80.413245,33030,28800 Sw 137th Ave,Family Dollar
Homosassa,FL,28.803314,-82.5602,34446,7618 W Grover Cleveland Blvd,Family Dollar
Hudson,FL,28.34014072,-82.61611308,34669-3099,12021 State Road 52,Family Dollar
Hudson,FL,28.33424251,-82.6670018,34667-2911,12225 Little Rd,Family Dollar
Immokalee,FL,26.42857,-81.41918,34142-3234,225 New Market Road W,Family Dollar
Immokalee,FL,26.418955,-81.416562,34142,106 East Main St,Family Dollar
Immokalee,FL,26.42686149,-81.43293353,34142-2804,610 N. 15th Street,Family Dollar
Indiantown,FL,27.019092,-80.461885,34956-3365,15490 Southwest Trail Rd,Family Dollar
Inglis,FL,29.033991,-82.669773,34449,110 N. Inglis Ave.,Family Dollar
Interlachen,FL,29.626338,-81.887163,32148-5421,109 S County Road 315,Family Dollar
Inverness,FL,28.832503,-82.328516,34450-4997,238b Us Highway 41 S,Family Dollar
Jachsonville,FL,30.329733,-81.588598,32211-5811,1010 Arlington Road North,Family Dollar
Jacksonville,FL,30.34759,-81.52294,32225,1556 Monument Road,Family Dollar
Jacksonville,FL,30.232642,-81.603275,32217,8088 Old Kings Road South,Family Dollar
Jacksonville,FL,30.380247,-81.698881,32209-2558,2261 Edgewood Avenue West,Family Dollar
Jacksonville,FL,30.27470184,-81.83094808,32221,10390 Normandy Blvd.,Family Dollar
Jacksonville,FL,30.33203704,-81.70599312,32254,2507 W. Beaver Street,Family Dollar
Jacksonville,FL,30.20010346,-81.72333286,32244,5466 Collins Road,Family Dollar
Jacksonville,FL,30.22642615,-81.76518047,32244,6800 Firestone Road,Family Dollar
Jacksonville,FL,30.26147086,-81.78163259,32210,4210 Old Middleburg Rd N,Family Dollar
Jacksonville,FL,30.20568665,-81.59566744,32217,4572 Sunbeam Road,Family Dollar
Jacksonville,FL,30.322787,-81.789263,32220-2315,8299 W Beaver St  Ste #7,Family Dollar
Jacksonville,FL,30.4282,-81.6624,32218-4832,1100 Dunn Ave,Family Dollar
Jacksonville,FL,30.294379,-81.780494,32221-6640,7945 Normandy Blvd,Family Dollar
Jacksonville,FL,30.351083,-81.59563,32277-3427,6044 Merrill Rd,Family Dollar
Jacksonville,FL,30.27717,-81.60479,32216-4922,5935 University Blvd W,Family Dollar
Jacksonville,FL,30.371844,-81.66505,32208-5017,5290 Norwood Ave  Ste 1,Family Dollar
Jacksonville,FL,30.290945,-81.62222,32207,4105 Emerson Street,Family Dollar
Jacksonville,FL,30.353605,-81.580108,32277-3005,7001 Merrill Rd,Family Dollar
Jacksonville,FL,30.375316,-81.649639,32208-5358,5751 N Main St Ste 112,Family Dollar
Jacksonville,FL,30.429548,-81.695405,32218,10696 Lem Turner Rd,Family Dollar
Jacksonville,FL,30.310521,-81.736979,32205-4827,5229 Normandy Blvd,Family Dollar
Jacksonville,FL,30.373554,-81.715333,32209-2242,3040 Edgewood Ave W,Family Dollar
Jacksonville,FL,30.356598,-81.674424,32209-4332,3000 Moncrief Rd Unit 6,Family Dollar
Jacksonville,FL,30.33140759,-81.73209796,32254-3014,744 Edgewood Ave N,Family Dollar
Jacksonville,FL,30.314219,-81.704658,32205-5730,929 Mcduff Avenue S,Family Dollar
Jacksonville,FL,30.304016,-81.844719,32221-4109,573 Chaffee Point Blvd,Family Dollar
Jacksonville,FL,30.389102,-81.683681,32208,1621 Edgewood Ave W,Family Dollar
Jacksonville,FL,30.285349,-81.755585,32210-1252,1878 Lane Avenue S,Family Dollar
Jacksonville,FL,30.346805,-81.689749,32209-5349,1945 Kings Rd,Family Dollar
Jacksonville,FL,30.270795,-81.746309,32210,6351 Wilson Blvd,Family Dollar
Jacksonville,FL,30.402632,-81.721178,32208-1829,4750 Soutel Dr.,Family Dollar
Jacksonville,FL,30.24679,-81.731136,32210,5714 Timuquana Road,Family Dollar
Jacksonville,FL,30.313443,-81.571733,32211-8732,8120 Atlantic Blvd,Family Dollar
Jacksonville,FL,30.406452,-81.687178,32208-2271,9114 Lem Turner Road,Family Dollar
Jacksonville,FL,30.353796,-81.654205,32206-2946,2610 North Main Street,Family Dollar
Jacksonville,FL,30.184852,-81.609603,32257-8650,"10550 Old Saint  Augustine Rd,",Family Dollar
Jacksonville,FL,30.440855,-81.762373,32219,6765 Dunn Ave.,Family Dollar
Jacksonville,FL,30.249018,-81.765839,32210-6793,5306 Firestone Rd,Family Dollar
Jacksonville,FL,30.287868,-81.577846,32216-3195,8014 Beach Blvd (State Road No,Family Dollar
Jacksonville,FL,30.226715,-81.737498,32244,6729 Blanding Blvd.,Family Dollar
Jacksonville,FL,30.24743,-81.793741,32210-6462,8566 103rd St,Family Dollar
Jacksonville,FL,30.34011755,-81.67527008,32204-1018,1282 Kings Road,Family Dollar
Jacksonville,FL,30.46824912,-81.61887008,32218-2054,913 New Berlin Rd,Family Dollar
Jacksonville,FL,30.37232217,-81.68837253,32209,5540 Moncrief Rd,Family Dollar
Jacksonville,FL,30.295247,-81.6091,32207-5037,5417 Beach Blvd.,Family Dollar
Jacksonville,FL,30.332893,-81.653262,32202-3052,233 E State Street,Family Dollar
Jacksonville,FL,30.35077946,-81.73187342,32254-1721,2174 Edgewood Avenue N,Family Dollar
Jacksonville,FL,30.301317,-81.628021,32207-3810,3544 Beach Boulevard,Family Dollar
Jacksonville,FL,30.386932,-81.715163,32209,4380 Moncrief Road,Family Dollar
Jasper,FL,30.51865491,-82.94710322,32052-0988,105 Ne Hatley St,Family Dollar
Jay,FL,30.9533036,-87.14940828,32565,14218 Alabama Street,Family Dollar
Jennings,FL,30.6061813,-83.10395292,32053,1177 Plum Street,Family Dollar
Jensen Beach,FL,27.24479015,-80.23417255,34957-7223,1333 Ne Jensen Beach Blvd.,Family Dollar
Kenneth City,FL,27.821383,-82.70996,33709-2005,5701 54th Avenue N,Family Dollar
Kenneth City,FL,27.81522,-82.72681,33709-3113,4731 66th St N,Family Dollar
Key Largo,FL,25.09403,-80.439659,33037-4344,99623 Overseas Highway,Family Dollar
Key Largo,FL,25.163758,-80.381542,33037-3010,105660 Overseas Hwy,Family Dollar
Keystone Heights,FL,29.78758001,-82.03078239,32656,200 N Lawrence Boulevard,Family Dollar
Key West,FL,24.56107464,-81.76478,33040-4602,3114 Flagler Avenue,Family Dollar
Kissimmee,FL,28.12654731,-81.46054828,34759-4222,695 Walnut Street,Family Dollar
Kissimmee,FL,28.339841,-81.362406,34743-5308,690 Buenaventura Blvd #300,Family Dollar
Kissimmee,FL,28.29051417,-81.41651609,34741-5461,102 S John Young Parkway,Family Dollar
Kissimmee,FL,28.34649872,-81.30914909,34744-9505,3295 Boggy Creek Road,Family Dollar
Kissimmee,FL,28.32471089,-81.41546755,34741,2625 N John Young Parkway,Family Dollar
Kissimmee,FL,28.25714775,-81.48527761,34758-2006,1645 S Poinciana Boulevard,Family Dollar
Kissimmee,FL,28.31951867,-81.39199,34744-1935,2500 Michigan Avenue,Family Dollar
Kissimmee,FL,28.30863,-81.404991,34744-3307,1900 N Main St,Family Dollar
Kissimmee,FL,28.303828,-81.441685,34741-4631,4000 West Vine Street,Family Dollar
Kissimmee,FL,28.32079406,-81.33915372,34744,2600 Simpson Rd.,Family Dollar
Kissimmee,FL,28.28625226,-81.35630195,34744,2180 E Irlo Bronson Memorial H,Family Dollar
Labelle,FL,26.75058508,-81.43768227,33935,790 South Bridge Street,Family Dollar
La Belle,FL,26.761944,-81.442175,33935,716 W. Corbett Avenue,Family Dollar
Lake Alfred,FL,28.09032855,-81.72998756,33850,225 S Lake Shore Way,Family Dollar
Lake Butler,FL,30.024068,-82.345254,32054-1033,675 W Main St,Family Dollar
Lake City,FL,30.188225,-82.621795,32055-4181,1020 E Duvall St,Family Dollar
Lake City,FL,30.182127,-82.70876,32024-3460,4534 Sw Heritage Oaks Circle,Family Dollar
Lake City,FL,30.194972,-82.636751,32055-2880,499 N Marion Ave,Family Dollar
Lakeland,FL,28.02840038,-81.90815775,33801-6321,1135 S Combee Road,Family Dollar
Lakeland,FL,28.09998416,-82.00523389,33810,4285 Kathleen Road,Family Dollar
Lakeland,FL,27.97444974,-81.97563391,33811,1090 W Pipkin Road,Family Dollar
Lakeland,FL,28.027097,-81.976296,33803-1879,1331 Ariana St,Family Dollar
Lakeland,FL,28.053875,-81.947203,33801-1919,921 E Memorial Blvd,Family Dollar
Lakeland,FL,28.036902,-82.013975,33815-3335,3903 New Tampa Hwy,Family Dollar
Lakeland,FL,28.048461,-81.904934,33801-9222,2790 Us Hwy 92 E,Family Dollar
Lakeland,FL,28.074982,-81.958351,33805-2418,2447 North Road 98,Family Dollar
Lakeland,FL,28.047912,-81.98946,33815,615 N. Wabash Avenue,Family Dollar
Lakeland,FL,28.0611664,-81.97327602,33805-3516,1321 Kathleen Rd,Family Dollar
Lake Panasoffkee,FL,28.787159,-82.128825,33538-6129,2085 N C 470,Family Dollar
Lake Park,FL,26.807124,-80.074588,33403-2041,1445 10th St,Family Dollar
Lake Placid,FL,27.23556944,-81.33009636,33852,116 S Sun &#39;N Lakes Blvd.,Family Dollar
Lake Placid,FL,27.298895,-81.356836,33852-5253,170 Plaza Ave,Family Dollar
Lake Wales,FL,27.89261172,-81.56174847,33853-4323,1430 State Road 60 E,Family Dollar
Lake Wales,FL,27.900705,-81.59292,33853-4011,135 W Central Ave,Family Dollar
Lake Worth,FL,26.61789,-80.115404,33463-3452,4640 Lake Worth Rd,Family Dollar
Lake Worth,FL,26.618333,-80.071122,33461-4228,1908 Lake Worth Rd,Family Dollar
Lake Worth,FL,26.60084951,-80.05610979,33460-5610,1206 S Dixie Hwy,Family Dollar
Lake Worth,FL,26.584311,-80.091959,33462,6258 South Congress Ave.,Family Dollar
Lantana,FL,26.57263509,-80.0622912,33462,1199 Hypoluxo Road,Family Dollar
Largo,FL,27.909017,-82.795662,33770,705 8th Avenue Sw,Family Dollar
Largo,FL,27.930504,-82.786723,33770-1820,1442 Missouri Ave N,Family Dollar
Largo,FL,27.88058,-82.786353,33778-2802,11849 Seminole Blvd,Family Dollar
Largo,FL,27.915097,-82.749416,33771-1930,3665 E  Bay Dr,Family Dollar
Largo,FL,27.881591,-82.817084,33774-3537,12887 Walsingham Rd,Family Dollar
Largo,FL,27.916646,-82.720041,33760-1923,2860 Roosevelt Blvd.,Family Dollar
Largo,FL,27.8963896,-82.74522345,33771-4005,13625 S Belcher Rd,Family Dollar
Lauderhill,FL,26.147137,-80.203518,33313-5813,1621 A Nw 40th Avenue,Family Dollar
Lee,FL,30.41904139,-83.29870073,32059-4881,569 Se Seaboard Street,Family Dollar
Leesburg,FL,28.823075,-81.889081,34748-3838,937 N 14th St,Family Dollar
Lehigh Acres,FL,26.61785263,-81.73134613,33971,5009 Lee Boulevard,Family Dollar
Lehigh Acres,FL,26.677572,-81.59877308,33972,2005 Joel Boulevard,Family Dollar
Lehigh Acres,FL,26.56447279,-81.60535249,33974,630 Bell Boulevard S,Family Dollar
Lehigh Acres,FL,26.60395163,-81.64822402,33936-6037,1111 Homestead Rd N,Family Dollar
Lehigh Acres,FL,26.616736,-81.691601,33971,3519 Lee Boulevard,Family Dollar
Lehigh Acres,FL,26.605434,-81.610579,33972-2301,85 Joel Blvd,Family Dollar
Live Oak,FL,30.24286983,-83.23735713,32060,23538 County Road 250,Family Dollar
Longwood,FL,28.699868,-81.328361,32750,256 N Us Highway 17 &amp; 92,Family Dollar
Lynn Haven,FL,30.2229,-85.6635,32444-4566,4129 Northshore Road,Family Dollar
Macclenny,FL,30.28208,-82.12788,32063-2033,359 West Maccleeny Avenue,Family Dollar
Madison,FL,30.469825,-83.417243,32340-2410,244 W. Base Street,Family Dollar
Marianna,FL,30.7482834653749,-85.2727126823236,32448,3985 Distribution Drive,Family Dollar
Marianna,FL,30.774107,-85.220764,32446,4504 Lafayette Street,Family Dollar
Marianna,FL,30.780932,-85.243819,32446-8235,4227 Lafayette St,Family Dollar
Marion Oaks,FL,29.015901,-82.178089,34473,3245 Sw 142nd Ln,Family Dollar
Mascotte,FL,28.57736637,-81.88549752,34753,279 E Myers Blvd,Family Dollar
Mayo,FL,30.052696,-83.171646,32066,312 East Main Street,Family Dollar
Melbourne,FL,28.136508,-80.648095,32935,1648 Aurora Road,Family Dollar
Melbourne,FL,28.12210482,-80.65712,32935,2200 Sarno Rd,Family Dollar
Melrose,FL,29.715317,-82.045255,32666,881 N State Road 21,Family Dollar
Miami,FL,25.841029,-80.200956,33150,7200 North West 2nd Avenue,Family Dollar
Miami,FL,25.76239,-80.30358,33144-4712,821 Sw 67th Avenue,Family Dollar
Miami,FL,25.57993871,-80.39761073,33177,20090 Sw 127th Avenue,Family Dollar
Miami,FL,25.779553,-80.229389,33125,2090 Nw 7th Street,Family Dollar
Miami,FL,25.88469313,-80.19945008,33168-4432,55 Nw 119th Street,Family Dollar
Miami,FL,25.8167336,-80.24022204,33142,4635 Nw 27th Avenue,Family Dollar
Miami,FL,25.79213328,-80.22342193,33125-2314,1808 Nw 17th Street,Family Dollar
Miami,FL,25.9118123,-80.21115609,33168,14941 Nw 7th Avenue,Family Dollar
Miami,FL,25.77374,-80.21281,33130-1031,1055 W. Flagler Street,Family Dollar
Miami,FL,25.845327,-80.24209,33147,2712 Nw 79th Street,Family Dollar
Miami,FL,25.60466494,-80.35075437,33157,9823 E. Hibiscus Street,Family Dollar
Miami,FL,25.590594,-80.3794,33157-6548,11520 Quail Roost Dr,Family Dollar
Miami,FL,25.628713,-80.376083,33157-1101,11269 Sw 152nd St,Family Dollar
Miami,FL,25.943159,-80.215526,33169-4438,18328 Nw 7th Avenue,Family Dollar
Miami,FL,25.875367,-80.211511,33168-2110,11002 Nw 7th Ave,Family Dollar
Miami,FL,25.810168,-80.213347,33127-3012,1085 Nw 36th St,Family Dollar
Miami,FL,25.807158,-80.22355,33142-6164,3311 Nw 17th Ave,Family Dollar
Miami,FL,25.849256,-80.186297,33138-4519,541 Ne 81st St,Family Dollar
Miami,FL,25.833662,-80.207923,33150,631 Nw 62 St,Family Dollar
Miami,FL,25.856455,-80.21061,33150-2306,8900 Nw 7th Ave,Family Dollar
Miami,FL,25.814501,-80.199799,33127-2844,4190 Nw 2nd Ave,Family Dollar
Miami,FL,25.85902,-80.242548,33147-3004,9390 Nw 27th Ave,Family Dollar
Miami,FL,25.619132,-80.348407,33157-3353,9590 Sw 160th Street,Family Dollar
Miami,FL,25.773032,-80.228256,33135-1616,2009 W Flagler St,Family Dollar
Miami,FL,25.838307,-80.225981,33147-6920,1720 Nw 69th Terrace,Family Dollar
Miami,FL,25.765879,-80.224239,33135-3506,1795 Sw 8th St,Family Dollar
Miami,FL,25.56200968,-80.38480352,33170-2835,22053 S. Dixie Hwy.,Family Dollar
Miami,FL,25.84660134,-80.23234591,33147,2151 Nw 79th Street,Family Dollar
Miami,FL,25.749417,-80.334288,33155-2337,8601 Sw 24th St.,Family Dollar
Miami,FL,25.831764,-80.232393,33147-7827,2173 Nw 62nd St.,Family Dollar
Miami,FL,25.825511,-80.195716,33137,3 Ne 54th Street,Family Dollar
Miami,FL,25.89776488,-80.23516437,33167-1457,2195 Nw 135th Street,Family Dollar
Miami,FL,25.824458,-80.216837,33142-3865,1220 Nw 54th Street,Family Dollar
Miami Beach,FL,25.855449,-80.130826,33141-2812,1166 Normandy Dr,Family Dollar
Miami Gardens,FL,25.94099012,-80.22960536,33056-3855,1700 Nw 183rd Street,Family Dollar
Miami Gardens,FL,25.9408826,-80.2593916,33056-3465,3465 Nw 183rd Street,Family Dollar
Miami Gardens,FL,25.953582,-80.261325,33056-2250,19721 Nw 37th Ave.,Family Dollar
Miami Gardens,FL,25.924658,-80.244035,33054,16525 Nw 27th Avenue,Family Dollar
Miami Shores,FL,25.858258,-80.182181,33138-3221,9045 Biscayne Blvd,Family Dollar
Micco,FL,27.88480672,-80.50407745,32976,290 Barefoot Blvd,Family Dollar
Middleburg,FL,30.0626,-81.88978,32068-4849,4249 County Road 218,Family Dollar
Middleburg,FL,30.096559,-81.812491,32068,3166 County Road 220,Family Dollar
Milton,FL,30.6304927,-87.04371166,32570-4732,5397 Stewart Street,Family Dollar
Milton,FL,30.666744,-87.053134,32570,6380 Highway 87 N,Family Dollar
Mims,FL,28.66460697,-80.84380402,32754-3849,2429 Us Highway 1,Family Dollar
Miramar,FL,25.981107,-80.224367,33023-6003,6830 Miramar Pky,Family Dollar
Moore Haven,FL,26.834038,-81.096627,33471,499 U.S. 27,Family Dollar
Morriston,FL,29.29009532,-82.53446397,32668,2991 Se State Road 121,Family Dollar
Mount Dora,FL,28.806527,-81.672342,32757-3503,2714 W Old Us Highway 441,Family Dollar
Mulberry,FL,27.90995244,-82.01456282,33860,2170 Bailey Rd,Family Dollar
Naples,FL,26.128501,-81.771282,34112-5711,2888 Tamiami Trl E,Family Dollar
Naples,FL,26.181376,-81.707357,34116-6953,4857 Golden Gate Pky,Family Dollar
Naranja,FL,25.512156,-80.431641,33032-8210,27365 S Dixie Hwy,Family Dollar
Navarre,FL,30.43193825,-86.86559953,32566,2694 Hwy 87 S.,Family Dollar
Navarre,FL,30.401636,-86.934709,32563,6899 Navarre Pkwy,Family Dollar
Newberry,FL,29.650824,-82.600515,32669-2211,24240 W Newberry Rd,Family Dollar
New Port Richey,FL,28.28888,-82.67724292,34654-4221,9033 Little Rd,Family Dollar
New Port Richey,FL,28.27404597,-82.62348177,34654,8080 Moon Lake Rd,Family Dollar
N Lauderdale,FL,26.227237,-80.221887,33068-1426,7200 Southgate Blvd,Family Dollar
N Miami,FL,25.89887213,-80.19226129,33161,13400 Ne 3rd Court,Family Dollar
N Miami,FL,25.884236,-80.211691,33168-2334,745 Nw 119th St,Family Dollar
N Miami,FL,25.970867,-80.204975,33169-2112,21329 Nw 2nd Ave,Family Dollar
N Miami,FL,25.909579,-80.169505,33161-3031,14512 W Dixie Hwy,Family Dollar
N. Miami,FL,25.890073,-80.169911,33161,1450 Ne 123rd Street,Family Dollar
N Miami,FL,25.89887213,-80.19226129,33161,13400 Ne 3rd Court,Family Dollar
N Miami,FL,25.884236,-80.211691,33168-2334,745 Nw 119th St,Family Dollar
N Miami,FL,25.970867,-80.204975,33169-2112,21329 Nw 2nd Ave,Family Dollar
N Miami,FL,25.909579,-80.169505,33161-3031,14512 W Dixie Hwy,Family Dollar
N. Miami,FL,25.890073,-80.169911,33161,1450 Ne 123rd Street,Family Dollar
North Fort Pierce,FL,27.469628,-80.33587,34946-1406,1859 North Us Hwy  1,Family Dollar
North Lauderdale,FL,26.21628,-80.20601,33068-2811,6039 Kimberly Blvd.,Family Dollar
North Lauderdale,FL,26.207212,-80.235856,33068-4255,8076 W. Mcnab Road,Family Dollar
North Miami,FL,25.909936,-80.188288,33161-2306,14610 Ne 6th Ave,Family Dollar
Oakland Park,FL,26.166115,-80.184474,33311-1226,2901a West Oakland Park Blvd.,Family Dollar
Ocala,FL,29.222047,-82.12355845,34479,3457 Jacksonville Rd.,Family Dollar
Ocala,FL,29.196617,-82.151932,34475,990 Nw 15th Avenue,Family Dollar
Ocala,FL,29.11199,-82.02239,34472-2360,9264 Se Maricamp Rd,Family Dollar
Ocala,FL,29.185598,-82.170415,34475-5656,2826 W Silver Springs Blvd,Family Dollar
Ocala,FL,29.214705,-82.143882,34475-9355,810 Nw 28th St,Family Dollar
Ocala,FL,29.199554,-82.102081,34470-4802,2614 Ne 14th Street,Family Dollar
Ocala,FL,29.11546131,-82.21936973,34476-5558,6060 Sw Highway 200,Family Dollar
Ocala,FL,29.128359,-82.038789,34472-2814,6814 Se Maricamp Road,Family Dollar
Ocala,FL,29.211413,-82.196616,34482,2370 Nw 45th Ter,Family Dollar
Ocala,FL,29.15635159,-82.08596639,34480,3660 Se Maricamp Rd,Family Dollar
Ocoee,FL,28.58505532,-81.52579419,34761,1403 Wurst Road,Family Dollar
Ocoee,FL,28.572677,-81.545247,34761-2210,9 W Silver Star Rd,Family Dollar
Okeechobee,FL,27.24297553,-80.84883714,34974,1984 Highway 70 West,Family Dollar
Okeechobee,FL,27.243374,-80.81958,34974,930 Ne Park Street,Family Dollar
Okeechobee,FL,27.207847,-80.808258,34974-7315,1951 Us Highway 441 Se,Family Dollar
Opa Locka,FL,25.938473,-80.275648,33055-3051,4669 Nw 183rd St,Family Dollar
Opa Locka,FL,25.905743,-80.244552,33054-3660,14400 Nw 27th Ave,Family Dollar
Orlando,FL,28.486467,-81.406521,32839,2041 American Blvd.,Family Dollar
Orlando,FL,28.391942,-81.377291,32824,104 W Wetherbee Road,Family Dollar
Orlando,FL,28.461665,-81.397018,32809-5716,7113 S Orange Blossom Trail,Family Dollar
Orlando,FL,28.52733714,-81.43335547,32811,4296 Columbia Street,Family Dollar
Orlando,FL,28.55879114,-81.49046767,32818-6477,1025 N Apopke Vineland Road,Family Dollar
Orlando,FL,28.48019968,-81.29709344,32822-3321,6412 Hoffner Avenue,Family Dollar
Orlando,FL,28.56443344,-81.24562508,32825,1420 N Dean Road,Family Dollar
Orlando,FL,28.61357251,-81.43172668,32810,6325 N Orange Blossom Trail,Family Dollar
Orlando,FL,28.61134484,-81.46916901,32810,6410 Clarcona Ocoee Road,Family Dollar
Orlando,FL,28.5425,-81.4468,32811,4969 Old Winter Garden Road,Family Dollar
Orlando,FL,28.511908,-81.32915,32812-5233,4608 E Michigan Street,Family Dollar
Orlando,FL,28.473214,-81.428155,32809-3604,4073 W Oak Ridge Rd,Family Dollar
Orlando,FL,28.497671,-81.398525,32839-1704,4524 S Orange Blossom Trl,Family Dollar
Orlando,FL,28.578675,-81.452961,32808-3503,2712 N Pine Hills Rd,Family Dollar
Orlando,FL,28.534231,-81.308929,32807-3121,701 S Semoran Blvd,Family Dollar
Orlando,FL,28.578885,-81.474053,32818-3007,2641 N Hiawassee Rd,Family Dollar
Orlando,FL,28.55061,-81.412623,32804-8009,2532 West Colonial Drive,Family Dollar
Orlando,FL,28.523425,-81.345696,32806-3330,2900 Curry Ford Rd,Family Dollar
Orlando,FL,28.400815,-81.406367,32837,11334 S Orange Blossom Trl,Family Dollar
Orlando,FL,28.530441,-81.398366,32805-3712,1340 West Gore Street,Family Dollar
Orlando,FL,28.517233,-81.426397,32805-5719,2200 Bruton Blvd Ste A,Family Dollar
Orlando,FL,28.553627,-81.453914,32808-7609,5401 W Colonial Dr,Family Dollar
Orlando,FL,28.510923,-81.400823,32805-6320,3015 S. Rio Grande Avenue,Family Dollar
Orlando,FL,28.611828,-81.415481,32810-4805,5997 Edgewater Drive,Family Dollar
Orlando,FL,28.467207,-81.385841,32809-5907,645 W Lancaster Rd,Family Dollar
Orlando,FL,28.470892,-81.410622,32809-3708,2360 West Oak Ridge Road,Family Dollar
Orlando,FL,28.538827,-81.458822,32811,110 N Kirkman Road,Family Dollar
Orlando,FL,28.535534,-81.286641,32822-8108,750 S Goldenrod Rd,Family Dollar
Orlando,FL,28.492844,-81.286116,32822,3808 S Goldenrod Rd,Family Dollar
Orlando,FL,28.564618,-81.173079,32826,14254 E. Colonial Drive,Family Dollar
Orlando,FL,28.597849,-81.450373,32808-1952,4511 N Pine Hills Road,Family Dollar
Orlando,FL,28.55034,-81.479979,32818-6743,7210 W Colonial Dr,Family Dollar
Orlando,FL,28.36570675,-81.36759564,32824,13804 Landstar Blvd,Family Dollar
Orlando,FL,28.55275,-81.392465,32804-7314,918 W Colonial Drive,Family Dollar
Ormond Beach,FL,29.260432,-81.076052,32174,780 S. Nova Rd,Family Dollar
Pace,FL,30.600799,-87.156508,32571-1917,4019 Highway 90,Family Dollar
Pahokee,FL,26.826226,-80.660436,33476-1402,590 E Main St,Family Dollar
Palatka,FL,29.64102701,-81.66352035,32177-4158,3205 Crill Avenue,Family Dollar
Palatka,FL,29.655928,-81.657082,32177,2608 Reid Street,Family Dollar
Palm Bay,FL,28.01859506,-80.58479056,32905,2200 Port Malabar Blvd Ne,Family Dollar
Palm Bay,FL,28.032695,-80.623388,32905-2820,4700 Babcock St Ne,Family Dollar
Palmetto,FL,27.52009,-82.558945,34221-4013,615 10th St E,Family Dollar
Panama City,FL,30.17493246,-85.68983219,32401-1748,1907 W 15th Street,Family Dollar
Panama City,FL,30.158426,-85.65798,32401,300 6th St E,Family Dollar
Panama City,FL,30.14639,-85.590286,32404-6451,104 N Tyndall Pky,Family Dollar
Panama City,FL,30.156401,-85.6259,32401-5271,2600 E 5th St,Family Dollar
Pembroke Park,FL,25.98416,-80.184184,33023-4452,4100 Hallandale Beach Blvd,Family Dollar
Pembroke Pines,FL,26.024408,-80.250322,33024-3602,1712 N University Drive,Family Dollar
Pensacola,FL,30.41975776,-87.22651246,32501-3037,711 W Cervantes Street,Family Dollar
Pensacola,FL,30.4963934,-87.25415563,32503-7154,7144 N. Palafox Street,Family Dollar
Pensacola,FL,30.426084,-87.208448,32503-5925,1301 N 9th Ave,Family Dollar
Pensacola,FL,30.50861538,-87.21862109,32514,8084 N. Davis Hwy,Family Dollar
Pensacola,FL,30.421757,-87.315883,32506-3763,8187 W Fairfield Dr,Family Dollar
Pensacola,FL,30.534233,-87.26078,32514,"312 E Nine Mile Rd, Suite 30",Family Dollar
Pensacola,FL,30.408637,-87.275085,32507-1100,"120 Chiefs Way, Suite 9",Family Dollar
Pensacola,FL,30.4444807,-87.23857076,32501-1040,1817 W Fairfield Dr,Family Dollar
Pensacola,FL,30.42716,-87.27296,32506-4217,4322 Lillian Hwy,Family Dollar
Pensacola,FL,30.452538,-87.21352,32503-2802,3812 N 9th Ave,Family Dollar
Pensacola,FL,30.486296,-87.306975,32526-8907,6929 Pine Forest Rd,Family Dollar
Pensacola,FL,30.387795,-87.289902,32507-3248,1110 Gulf Beach Highway,Family Dollar
Pensacola,FL,30.460462,-87.289809,32526,2829 West Michigan Ave,Family Dollar
Pensacola,FL,30.430808,-87.241259,32505-6031,1717 N. Pace Blvd.,Family Dollar
Pensacola,FL,30.462718,-87.251972,32505-3111,5218 N W Street,Family Dollar
Perry,FL,30.1051232,-83.58300024,32348,1503 S. Jefferson Street,Family Dollar
Pinellas,FL,27.834422,-82.727685,33781,6875 66th Street N,Family Dollar
Pinellas Park,FL,27.834947,-82.700527,33781-5733,6950 49th St,Family Dollar
Plant City,FL,28.003043,-82.122726,33566-6905,1403 S Collins St,Family Dollar
Plant City,FL,28.0191,-82.159313,33563-2838,3509 W Baker St,Family Dollar
Poinciana,FL,28.144895,-81.465685,34759,520 Cypress Parkway #300,Family Dollar
Poinciana,FL,28.0680361,-81.49392236,34759,3495 Poinciana Parkway,Family Dollar
Pompano Beach,FL,26.23740687,-80.12365972,33060,51 Ne 6th Street,Family Dollar
Pompano Beach,FL,26.290795,-80.110934,33064-4861,4811 N Dixie Hwy,Family Dollar
Port Richey,FL,28.280085,-82.70417,34668-6837,6670 Ridge Road,Family Dollar
Port St Joe,FL,29.812438,-85.299885,32456,510 C G Costin Blvd,Family Dollar
Port St. Lucie,FL,27.318253,-80.366196,34983,577 Nw Prima Vista Blvd.,Family Dollar
Port St Lucie,FL,27.27619536,-80.28526974,34952-6885,10331 Se Lennard Road,Family Dollar
Port St. Lucie,FL,27.318253,-80.366196,34983,577 Nw Prima Vista Blvd.,Family Dollar
Port St Lucie,FL,27.27619536,-80.28526974,34952-6885,10331 Se Lennard Road,Family Dollar
Princeton,FL,25.53819044,-80.37151945,33032,24785 Sw 112th Avenue,Family Dollar
Punta Gorda,FL,27.00215866,-82.02910624,33983-6404,25365 Rampart Boulevard,Family Dollar
Riviera Beach,FL,26.785418,-80.053559,33404-2320,2900 Broadway,Family Dollar
Riviera Beach,FL,26.78366017,-80.0878292,33404,2501 Congress Avenue,Family Dollar
Ruskin,FL,27.71964562,-82.43374002,33570,37 N Us Highway 41,Family Dollar
Saint Augustine,FL,29.89012441,-81.34298745,32084-8716,840 W King Street,Family Dollar
Saint Cloud,FL,28.19637918,-81.29194436,34772,3361 Canoe Creek Rd,Family Dollar
San Antonio,FL,28.331426,-82.275689,33576-8160,32644 State Rd 52,Family Dollar
Sanford,FL,28.80102949,-81.25596437,32771-2972,1111 Celery Avenue,Family Dollar
Sanford,FL,28.78759,-81.273709,32771-4276,2436 S French Ave,Family Dollar
Sanford,FL,28.811069,-81.264539,32771-1407,413 E 1st St,Family Dollar
Sarasota,FL,27.338872,-82.523524,34237,240 N Lime Ave,Family Dollar
Sarasota,FL,27.35624676,-82.52970579,34234-7531,2128 N Washington Blvd,Family Dollar
Sebastian,FL,27.790184,-80.485912,32958-5015,728 S Fleming St,Family Dollar
Sebring,FL,27.501367,-81.438546,33870-7229,620 N Ridgewood Drive,Family Dollar
Sebring,FL,27.470816,-81.438278,33870-5437,3240 Us Highway 27s,Family Dollar
Seffner,FL,28.005491,-82.285566,33584,615 W Us Highway 92,Family Dollar
Seffner,FL,27.979411,-82.287296,33584-4534,740 M L King Blvd #A,Family Dollar
Silver Springs,FL,29.182348,-81.88861,34488-5149,15965 E. Highway 40,Family Dollar
Sneads,FL,30.710036,-84.925675,32460,8021 Us Highway 90,Family Dollar
Sorrento,FL,28.807568,-81.557276,32776,24124 Florida 46,Family Dollar
Spring Hill,FL,28.487305,-82.573779,34606-2204,4075 Deltona Boulevard,Family Dollar
Spring Hill,FL,28.49226857,-82.54441755,34608,10620 Northcliffe Blvd.,Family Dollar
Spring Hill,FL,28.452259,-82.593447,34606-4348,7419 Spring Hill Blvd,Family Dollar
Spring Hill,FL,28.46529701,-82.51371836,34609-5045,12500 Spring Hill Drive,Family Dollar
St Augustine,FL,29.91706968,-81.34708391,32084-1856,500 State Road 16,Family Dollar
St Augustine,FL,29.92471308,-81.32731048,32084-1277,3501m N Ponce De Leon Blvd,Family Dollar
St Augustine,FL,29.85201461,-81.32486482,32086-6077,2485 S Us Highway 1 S,Family Dollar
St Cloud,FL,28.24666627,-81.27960382,34769-4454,920 13th St,Family Dollar
St Petersburg,FL,27.753276,-82.639073,33701,1701 4th Street South,Family Dollar
St. Petersburg,FL,27.771381,-82.70038,33710,4901 Central Ave,Family Dollar
St Petersburg,FL,27.771575,-82.677288,33713-8520,3201 Central Ave,Family Dollar
St Petersburg,FL,27.747524,-82.680346,33711-3227,2301 34th St South,Family Dollar
St Petersburg,FL,27.759547,-82.646949,33705-2201,1041 Martin Luther King St S,Family Dollar
St. Petersburg,FL,27.767645,-82.645536,33701-4010,850-A 3rd Avenue South,Family Dollar
St. Petersburg,FL,27.788853,-82.655341,33704-4024,1720 16th St. North,Family Dollar
St. Petersburg,FL,27.748662,-82.701584,33707,5015 Gulfport Blvd. South,Family Dollar
St. Petersburg,FL,27.803075,-82.679907,33713,3401 34th Ave. N,Family Dollar
St Petersburg,FL,27.728478,-82.638909,33705-4409,4384 6th St S,Family Dollar
St Petersburg,FL,27.753276,-82.639073,33701,1701 4th Street South,Family Dollar
St. Petersburg,FL,27.771381,-82.70038,33710,4901 Central Ave,Family Dollar
St Petersburg,FL,27.771575,-82.677288,33713-8520,3201 Central Ave,Family Dollar
St Petersburg,FL,27.747524,-82.680346,33711-3227,2301 34th St South,Family Dollar
St Petersburg,FL,27.759547,-82.646949,33705-2201,1041 Martin Luther King St S,Family Dollar
St. Petersburg,FL,27.767645,-82.645536,33701-4010,850-A 3rd Avenue South,Family Dollar
St. Petersburg,FL,27.788853,-82.655341,33704-4024,1720 16th St. North,Family Dollar
St. Petersburg,FL,27.748662,-82.701584,33707,5015 Gulfport Blvd. South,Family Dollar
St. Petersburg,FL,27.803075,-82.679907,33713,3401 34th Ave. N,Family Dollar
St Petersburg,FL,27.728478,-82.638909,33705-4409,4384 6th St S,Family Dollar
Stuart,FL,27.1319209,-80.20275026,34997,6067 Se Federal Highway,Family Dollar
Stuart,FL,27.190597,-80.255002,34994-2939,836 S Federal Hwy,Family Dollar
Summerfield,FL,28.981509,-81.989816,34491,9850 Se Highway 42,Family Dollar
Sunrise,FL,26.136595,-80.23024,33313-6803,6033 W Sunrise Blvd,Family Dollar
Sunrise,FL,26.154369,-80.255961,33322-3058,8241 Sunset Strip,Family Dollar
Tallahassee,FL,30.396896,-84.281432,32305-7019,3613 Crawfordville Road,Family Dollar
Tallahassee,FL,30.464111,-84.298526,32303-5357,932 W Tharpe Street,Family Dollar
Tallahassee,FL,30.501268,-84.326773,32303-2819,3813 N. Monroe Street,Family Dollar
Tallahassee,FL,30.32111,-84.24772,32311,1885 Oak Ridge Rd E,Family Dollar
Tallahassee,FL,30.415901,-84.281064,32301-6363,2526 South Monroe Street,Family Dollar
Tallahassee,FL,30.37643074,-84.28913,32305,5107 Capital Circle Sw,Family Dollar
Tallahassee,FL,30.416841,-84.302849,32305-6146,2440 Springhill Rd,Family Dollar
Tallahassee,FL,30.449277,-84.290195,32301-1062,540 W Brevard St,Family Dollar
Tallahassee,FL,30.431971,-84.252,32301-3009,1711 Apalachee Pkwy,Family Dollar
Tallahassee,FL,30.455467,-84.344414,32304,1385 Bountstown Highway,Family Dollar
Tamarac,FL,26.1962,-80.2511,33321-4608,6045 N. University Drive,Family Dollar
Tamarac,FL,26.185184,-80.189152,33309-3450,3150 W Commercial Blvd,Family Dollar
Tampa,FL,27.981754,-82.34121,33610,9604 E. Dr. Martin Luther King,Family Dollar
Tampa,FL,28.02926967,-82.41569932,33604,8727 N. 40th Street,Family Dollar
Tampa,FL,28.065947,-82.451708,33612-4448,13100 N Nebraska Avenue,Family Dollar
Tampa,FL,27.981751,-82.402006,33610-8053,4002 N 50th Street,Family Dollar
Tampa,FL,27.993979,-82.430784,33610-4424,2525 E Hillsborough Ave,Family Dollar
